stop_lat,zone_id,stop_lon,stop_id,stop_name,location_type
36.758941,,-76.24989,0835,BATTLEFIELD & LENORE,0
36.756025,,-76.248569,0836,BATTLEFIELD & GIBSON,0
36.811907,,-76.249426,0831,STALHAM & FIRESIDE,0
36.817631,,-76.251905,0833,WINGFIELD & BERKLEY,0
36.729858,,-76.241002,0839,BATTLEFIELD & NORTHFIELD,0
36.734675,,-76.240706,0838,BATTLEFIELD & GREAT BRIDGE,0
36.772908,,-76.287121,5988,BAINBRIDGE & MCCLOUD,0
36.91568,,-76.23646,0546,LITTLE CREEK & MOOSE,0
36.915742,,-76.252787,0541,LITTLE CREEK & HAROLD,0
36.912707,,-76.255062,0540,TIDEWATER & LITTLE CREEK,0
36.9149,,-76.246169,0543,LITTLE CREEK & MERRITT,0
36.91515,,-76.250013,0542,LITTLE CREEK & SEWELLS POINT,0
36.839354,,-76.181378,5982,PRINCESS ANNE & PARLIAMENT,0
36.800547,,-76.130568,5983,PRINCESS ANNE & BRANTINGHAM,0
36.760138,,-76.067137,5980,PRINCESS ANNE & CURRY COMB,0
36.760058,,-76.067214,5981,PRINCESS ANNE & CURRY COMB,0
36.869349,,-76.180934,5986,BAKER & HERBERT MOORE,0
36.916639,,-76.232455,0548,LITTLE CREEK & BISON,0
36.847477,,-76.160483,5984,VIRGINIA BEACH & NORTHRIDGE,0
36.792615,,-76.118462,5985,PRINCESS ANNE & LYNNHAVEN,0
36.859776,,-76.277925,0411_merged_9740030,CHURCH & GOFF,0
36.862788,,-76.294505,0721,COLONIAL & GRAYDON,0
36.859555,,-76.296099,0720,COLONIAL & BOISSEVAIN,0
36.863772,,-76.293992,0722,COLONIAL & PRINCESS ANNE,0
36.867244,,-76.292498,0725,COLONIAL & WASHINGTON,0
37.006545,,-76.394701,2318,PEMBROKE & GREENBRIAR,0
37.007937,,-76.391313,2319,G & PEMBROKE,0
37.004857,,-76.397323,2317,PEMBROKE & CHILDS,0
37.001568,,-76.402178,2315,PEMBROKE & ABERDEEN,0
36.996011,,-76.407616,2312,35TH & ACORN,0
36.997631,,-76.405848,2313,SHELL & PARRISH,0
36.993546,,-76.410394,2310,35TH & CHESTNUT,0
36.861397,,-76.173298,5854,NEWTOWN & CONNIE,0
36.873322,,-76.139387,5855,HAYGOOD & FERRY PLANTATION,0
36.873695,,-76.138726,5856,HAYGOOD & FERRY PLANTATION,0
36.824842,,-76.404397,5857,PORTSMOUTH & DOCK LANDING,0
37.000014,,-76.425949,5851,MARSHALL & TIMBER,0
36.843678,,-76.134608,5853,VIRGINIA BEACH & CENTRAL PARK,0
36.824964,,-76.404158,5858,PORTSMOUTH & DOCK LANDING,0
36.84905,,-76.191499,3773,KEMPSVILLE & NORTH CENTER,0
36.946,,-76.238834,0058,OCEAN VIEW & ATLANS,0
36.841719,,-75.997332,3777,VIRGINIA BEACH & BIRDNECK,0
36.797969,,-76.084527,3776,HOLLAND & WARWICK,0
36.953607,,-76.251765,0053,DUFFYS & GRANBY,0
36.950342,,-76.253816,0051,GRANBY & GOVERNMENT,0
36.783101,,-76.334331,3778,GEORGE WASHINGTON & WOODLAND,0
36.947954,,-76.241495,0056,OCEAN VIEW & ELNORA,0
36.949835,,-76.245845,0055,OCEAN VIEW & NORFOLK,0
36.951094,,-76.24792,0054,OCEAN VIEW & HAMMETT,0
36.884724,,-76.181697,1328_merged_9740035,NORTHAMPTON & ADAMS,0
37.02704,,-76.367271,2268,MICHIGAN & QUEEN,0
37.026214,,-76.36824,2269,QUEEN & MICHIGAN,0
36.850458,,-76.26102,0618,CORPREW & PRESIDENTIAL,0
36.847049,,-76.269992,0615,PARK & PRESIDENTIAL,0
36.979885,,-76.405,2518,16TH & ROANOKE,0
36.848964,,-76.268159,0616,PARK & BOND,0
36.95632,,-76.254101,0610,OCEAN VIEW & FIRST VIEW,0
36.852572,,-76.279456,0613,BRAMBLETON & CHURCH,0
36.853449,,-76.282047,0612,BRAMBLETON & LINCOLN,0
37.011075,,-76.432784,2442,MARSHALL & HILTON,0
37.013776,,-76.434422,2441,MARSHALL & 72ND,0
37.007002,,-76.43021,2444,MARSHALL & RICHARD,0
36.79521,,-76.347328,2445,GUST & MARCY,0
37.00357,,-76.428138,2448,MARSHALL & GLOUCESTER,0
37.001308,,-76.426736,2449,MARSHALL & NANSEMOND,0
36.937117,,-76.325188,9250,SECOND & B,0
37.050005,,-76.429022,7866,BIG BETHEL & RADFORD,0
36.843019,,-76.020948,5989,FIRST COLONIAL & VIRGINIA BEACH,0
36.859973,,-76.207081,0938,JANAF SHOPPING CENTER,0
37.013101,,-76.451276,2101,75TH & RIVER,0
36.868714,,-76.211099,0939,MILITARY & LAKE HERBERT,0
37.029513,,-76.345109,2046,KING & PEMBROKE,0
37.030652,,-76.346709,2047,HAMPTON TRANSFER CENTER,0
37.027373,,-76.341813,2045,EATON & MILL POINT,0
37.033138,,-76.33007,2042,PEMBROKE & CYPRESS,0
36.874535,,-76.295305,0428,COLLEY & 26TH,0
37.023552,,-76.352231,2040,KECOUGHTAN & CHAPEL,0
36.875904,,-76.256844,2041,LAFAYETTE & LENS,0
36.79328,,-76.366547,9432,LOREN & ROOSEVELT,0
36.787956,,-75.998027,1466_merged_9740034,GENERAL BOOTH & DAM NECK,0
37.035906,,-76.347077,2048,KING & HUFFMAN,0
36.823697,,-76.210677,0934,MILITARY & BULLIS,0
36.800534,,-76.368411,9416,GREENWOOD & BONNE VILLA,0
36.888598,,-76.303014,5828,HAMPTON & 49TH,0
36.820935,,-76.301143,9418,SEVENTH & MADISON,0
37.106786,,-76.490863,9510,CRISTON & HANCOCK,0
36.771224,,-76.011722,5708_merged_9740026,GENERAL BOOTH & SULLIVAN HOUSE,0
36.916789,,-76.229987,0549,LITTLE CREEK & MEADOW CREEK,0
37.029982,,-76.362745,2838,LASALLE & MICHIGAN,0
36.887548,,-76.17837,5987,NORTHAMPTON & DIAMOND SPRINGS,0
36.879616,,-76.305278,0421,38TH & BLUESTONE,0
37.073305,,-76.476596,3159,J CLYDE MORRIS & RUGBY,0
36.862204,,-76.393473,2688,CHURCHLAND & TYRE NECK,0
37.13061,,-76.533634,2684,DENBIGH & DELOICE,0
37.137766,,-76.521176,2686,DENBIGH & MILLWOOD,0
37.139119,,-76.519123,2687,DENBIGH & JEFFERSON,0
37.120716,,-76.525839,2680,WARWICK & BLAND,0
37.12308,,-76.528985,2681,WARWICK & SHERWOOD,0
37.124566,,-76.530878,2682,WARWICK & CAMPBELL,0
37.128553,,-76.536157,2683,WARWICK & DENBIGH,0
36.83831,,-76.13677,1434,INDEPENDENCE & BONNEY,0
36.820039,,-76.120955,1435,HOLLAND & S. PLAZA,0
36.795063,,-76.093894,1433,LYNNHAVEN & PRIMROSE,0
36.833189,,-76.331499,1623,CUTHERELL & MCKINLEY,0
37.093066,,-76.447697,3206,DAPHIA & SAUNDERS 2,0
36.828381,,-76.333357,1620,TURNPIKE & PRESTON,0
36.942623,,-76.322261,5186,VIRGINIA & COLD STORAGE,0
36.829294,,-76.135538,1430,INDEPENDENCE & WICKLOW,0
36.834614,,-76.334275,1625,HIGH & WATSON,0
37.094617,,-76.458881,3200,J CLYDE MORRIS & TRAVERSE,0
37.091717,,-76.445887,3208,DAPHIA & SAINT EGNATIOS,0
37.062391,,-76.40686,2860,BUTLER FARM & LUCAS 3,0
37.062858,,-76.405231,2861,BUTLER FARM & MAGRUDER 1,0
37.063147,,-76.401984,2862,BUTLER FARM & MAGRUDER 2,0
37.064175,,-76.386021,2864,ARMISTEAD & BUTLER FARM,0
37.06837,,-76.384731,2865,ARMISTEAD & SACRAMENTO,0
37.072631,,-76.382162,2866,ARMISTEAD & POTTER,0
37.086354,,-76.395043,2868,MAGRUDER & FLOYD THOMPSON,0
37.093368,,-76.394025,2869,SEMPLE FARMS & COMMANDER SHEPPARD,0
36.754904,,-76.05919,3799,PRINCESS ANNE & JAMES MADISON,0
36.874189,,-76.217389,1198,PRINCESS ANNE & GABRIEL,0
36.844196,,-76.366197,3348,HIGH & DUKE,0
36.818,,-76.320715,3349,PORTSMOUTH & STAUNTON,0
36.804372,,-76.321533,3342,GEORGE WASHINGTON & BAINBRIDGE,0
36.866585,,-76.23536,1190,PRINCESS ANNE & AZALEA GARDEN,0
37.12483,,-76.514016,3340,CHATHAM & BOYKIN,0
36.867059,,-76.230989,1192,PRINCESS ANNE & JUNIPER,0
36.870599,,-76.223984,1195,PRINCESS ANNE & MCNEAL,0
36.868892,,-76.227095,1194,PRINCESS ANNE & NORCOVA,0
36.872615,,-76.220232,1197,PRINCESS ANNE & DARDEN,0
36.812792,,-76.328171,1759,DEEP CREEK & EDISON,0
36.808953,,-76.329017,1758,DEEP CREEK & BENTON,0
36.806382,,-76.331964,1756,GREENWOOD & MAUPIN,0
36.806171,,-76.335625,1755,GREENWOOD & INDEPENDENCE,0
36.805573,,-76.343759,1754,GREENWOOD & PARADISE,0
36.805212,,-76.345981,1753,MCLEAN & GREENWOOD,0
36.807047,,-76.34802,1752,MCLEAN & COLLEGE,0
36.855234,,-76.269652,1177,PRINCESS ANNE & HANSON,0
36.85613,,-76.272385,1176,PRINCESS ANNE & TIDEWATER,0
36.857049,,-76.275195,1175,PRINCESS ANNE & CHAPEL,0
36.858201,,-76.278587,1173,PRINCESS ANNE & CHURCH,0
36.860139,,-76.285338,1171,PRINCESS ANNE & ARMISTEAD,0
36.853863,,-76.263885,1179,PRINCESS ANNE & PARK,0
36.828256,,-76.279782,5532,LIBERTY & CULPEPPER,0
37.056771,,-76.39134,5530,MEDICAL & COLISEUM,0
36.831856,,-76.299947,5537,BART & COURT,0
36.839405,,-75.974061,5536,PACIFIC & 11TH,0
36.858487,,-75.978956,5535,PACIFIC & 30TH,0
36.766667,,-76.013588,5534,GENERAL BOOTH & LONDON BRIDGE,0
36.834824,,-75.972603,1285,PACIFIC & 6TH,0
36.844064,,-75.975178,1287,PACIFIC & 16TH,0
36.839252,,-75.973864,1286,PACIFIC & 11TH,0
36.861124,,-75.979923,1280,PACIFIC & 33RD,0
36.854362,,-75.97811,1282,PACIFIC & 26TH,0
36.802617,,-76.262819,1288,ATLANTIC & NARROW,0
36.797371,,-76.325806,1579,GEORGE WASHINGTON & WOODLAND,0
36.79625,,-76.326421,1578,GEORGE WASHINGTON & RODGERS,0
36.811043,,-76.352455,1570,MCLEAN & BELMONT,0
36.795225,,-76.329072,1577,VICTORY & HURON,0
36.795711,,-76.33202,1576,VICTORY & SEBAGO,0
36.795983,,-76.335305,1575,VICTORY & DEEP CREEK,0
36.837573,,-76.32185,5975,LONDON & CHESAPEAKE,0
37.016233,,-76.352802,2036,KECOUGHTAN & SUNSET,0
37.002369,,-76.44337,5627,NORTH GATE GRUMMAN SHELTER,0
36.859201,,-75.97826,5624,ATLANTIC & 31ST,0
36.808877,,-76.213599,5622,COLLEGE PARK & BRYNMAWR,0
36.809037,,-76.213801,5621,COLLEGE PARK & BENNINGTON,0
36.867072,,-76.029689,1371,FIRST COLONIAL & CAMELOT,0
36.840349,,-76.063731,1370,LYNNHAVEN & SOUTHERN,0
37.012675,,-76.352884,2034,KECOUGHTAN & IVY HOME,0
36.89522,,-76.060059,1375,GREAT NECK & GREEN HILL,0
36.884289,,-76.047194,1374,GREAT NECK & GODFREY,0
36.911228,,-76.072418,1377,SHORE & EBB TIDE,0
36.912134,,-76.069584,1376,SHORE & GREAT NECK,0
36.907548,,-76.108128,1379,SHORE & SHADY OAKS,0
36.907977,,-76.097497,1378,SHORE & DUPONT,0
36.833107,,-76.262243,3836,CAMPOSTELLA & ELKIN,0
36.830521,,-76.254004,3831,INDIAN RIVER & FORD,0
36.85177,,-76.277931,3832,BRAMBLETON & LANDING,0
36.853568,,-76.275031,3833,TIDEWATER & BAGNALL,0
37.008265,,-76.358973,2030,KECOUGHTAN & LASALLE,0
36.825708,,-76.264283,3838,MELON & VINE,0
36.824918,,-76.266651,3839,BERKLEY & CRYSTAL,0
36.725467,,-76.241359,0840,BATTLEFIELD & TILDEN,0
36.721476,,-76.240135,0841,BATTLEFIELD & LOCKS,0
36.717946,,-76.239572,0842,BATTLEFIELD & ALBEMARLE,0
36.715608,,-76.248845,0843,SHEA & CONQUEST,0
36.719553,,-76.2872,0844,CEDAR & LAS GAVIOTAS,0
36.72535,,-76.295387,0845,TCC CHESAPEAKE,0
36.7176,,-76.239215,0846,BATTLEFIELD & CEDAR,0
36.886493,,-76.048904,5992,GREAT NECK & DEY COVE,0
36.729978,,-76.240659,0849,BATTLEFIELD & WELCH,0
36.883837,,-76.047104,5999,GREAT NECK & GREAT NECK CIR,0
36.907637,,-76.067651,5998,GREAT NECK & LYNNHAVEN,0
36.87463,,-76.264617,0530,TIDEWATER & SAINT DENIS,0
36.878222,,-76.263292,0533,TIDEWATER & LAFAYETTE,0
36.881411,,-76.262011,0535,TIDEWATER & COLUMBIA,0
36.88567,,-76.260401,0536,TIDEWATER & CROMWELL,0
36.887959,,-76.259618,0537,TIDEWATER & WILLOW WOOD,0
36.890817,,-76.258427,0538,TIDEWATER & NORVIEW,0
36.900448,,-76.255998,0539,TIDEWATER & WIDGEON,0
36.87493,,-76.289164,0728,COLONIAL & 29TH,0
36.823454,,-76.269821,1244,WILSON & LANDSWORTH,0
36.992663,,-76.412675,2309,35TH & ROANOKE,0
36.872129,,-76.274526,0289,26TH & WAVERLY,0
36.983928,,-76.422563,2301,JEFFERSON & 28TH,0
36.980262,,-76.429773,2300,28TH & HUNTINGTON,0
36.986149,,-76.423929,2303,JEFFERSON & 32ND,0
37.095315,,-76.450551,3204,HARPERSVILLE & SAUNDERS,0
36.988867,,-76.422406,2305,35TH & MADISON,0
36.762298,,-76.008278,0283,NIMMO & UPTON,0
36.990956,,-76.417003,2307,35TH & WICKHAM,0
36.868684,,-76.300714,0281,HAMPTON & SPOTSWOOD,0
36.863145,,-76.250546,0992,BALLENTINE & TARRANT,0
36.860991,,-76.248209,0993,PRINCESS ANNE & RAILROAD,0
36.86783,,-76.251685,0990,BALLENTINE & TAIT,0
37.038116,,-76.314481,5843,GRIMES & PEMBROKE,0
37.042158,,-76.314814,5842,GRIMES & SOMERVILLE,0
37.044737,,-76.312998,5841,ANDREWS & REDFORD,0
36.863337,,-76.243377,0995,PRINCESS ANNE & ARKANSAS,0
36.868559,,-76.289977,0444,21ST & DEBREE,0
36.868024,,-76.287499,0445,21ST & LLEWELLYN,0
36.866561,,-76.284993,0447,20TH & MONTICELLO,0
36.879532,,-76.303612,0441,38TH & BOWDENS FERRY,0
36.810337,,-76.218735,5849,MILITARY & AUBURN,0
36.869383,,-76.292888,0443,21ST & COLONIAL,0
36.884918,,-76.302624,0264,HAMPTON & 45TH,0
36.881507,,-76.302395,0266,HAMPTON & 41ST,0
36.875684,,-76.302013,0267,HAMPTON & 25TH,0
36.89078,,-76.303905,0261,HAMPTON & BOLLING,0
36.871632,,-76.301359,0268,HAMPTON & WOODROW,0
36.942819,,-76.245624,0332,CHESAPEAKE & DUDLEY,0
36.939023,,-76.245051,0330,CHESAPEAKE & CHESTER,0
37.026059,,-76.385065,2275,QUEEN & BUCKINGHAM,0
37.025783,,-76.381945,2274,QUEEN & INLANDVIEW,0
37.034254,,-76.392101,2277,POWER PLANT & PINE CHAPEL,0
36.980004,,-76.4167,2553,HAMPTON & MADISON,0
37.024953,,-76.372312,2271,QUEEN & RED ROBIN,0
37.023865,,-76.375368,2272,QUEEN & ADRIAN,0
36.914118,,-76.306648,0336,HAMPTON & RUNNYMEDE,0
37.046406,,-76.396317,2279,EXECUTIVE & CUNNINGHAM,0
36.809847,,-76.366832,2278,AIRLINE & WESTGATE PLAZA,0
36.904492,,-76.243,0669,SEWELLS POINT & KITTRELL,0
36.794453,,-76.234589,0198,OLD GREENBRIAR & JUNIPER,0
36.794141,,-76.234475,0199,OLD GREENBRIAR & JUNIPER,0
36.86025,,-76.286986,0192,MONTICELLO & PRINCESS ANNE,0
36.908286,,-76.2447,0662,SEWELLS POINT & AVENUE E,0
36.910401,,-76.245794,0663,SEWELLS POINT & DENISON,0
36.913257,,-76.247758,0664,SEWELLS POINT & AVENUE I,0
36.912481,,-76.247117,0665,SEWELLS POINT & AVENUE I,0
36.910213,,-76.245837,0666,SEWELLS POINT & DENISON,0
36.907861,,-76.24461,0667,SEWELLS POINT & AVENUE E,0
36.991228,,-76.408854,2459,CHESTNUT & 32ND,0
36.993887,,-76.413902,2458,ROANOKE & 37TH,0
36.996764,,-76.418484,2455,ORCUTT & 43RD,0
36.996501,,-76.415611,2456,ROANOKE & 41ST,0
36.995836,,-76.423325,2451,MARSHALL & 44TH,0
36.998395,,-76.424919,2450,MARSHALL & 48TH,0
36.994957,,-76.419413,2453,41ST & NEWSOME,0
36.993955,,-76.42144,2452,41ST & MARSHALL,0
37.041673,,-76.348277,2051,KING & PLAZA,0
37.039446,,-76.348096,2050,KING & RIP RAP,0
37.044446,,-76.354189,2053,DOOLITTLE & LANGLEY SQUARE,0
37.044595,,-76.358585,2054,DOOLITTLE & SELDENDALE,0
37.039448,,-76.373058,2057,ARMISTEAD & WESTMINSTER,0
37.036385,,-76.366892,2056,ARMISTEAD & LAKE HAMPTON,0
37.03989,,-76.378428,2059,PINE CHAPEL & BARRACK,0
36.938228,,-76.22255,0066,OCEAN VIEW & CAPE VIEW,0
36.940509,,-76.228879,0064,OCEAN VIEW & BEAUMONT,0
36.939279,,-76.225638,0065,OCEAN VIEW & GROVE,0
36.942334,,-76.232511,0062,OCEAN VIEW & STURGIS,0
36.944108,,-76.235676,0060,OCEAN VIEW & BEACH VIEW,0
36.823927,,-76.410655,9404,PORTSMOUTH & TAYLOR,0
36.802706,,-76.132379,1506,PRINCESS ANNE & PROVIDENCE,0
36.793154,,-76.344759,9409,BEECHDALE & GUST,0
36.800067,,-76.351809,3779,VICTORY & GREENWOOD,0
36.93646,,-76.217217,0068,OCEAN VIEW & 1ST BAY,0
36.828656,,-76.168531,1507,PRINCESS ANNE & PARLIAMENT,0
36.775838,,-76.097647,9620,WELLNESS LOOP,0
36.827128,,-76.162183,1508,PRINCESS ANNE & OVERLAND,0
36.996779,,-76.430369,3225,JEFFERSON & 49TH,0
37.132739,,-76.531156,2699,DENBIGH & POCAHANTAS,0
36.876287,,-76.288516,0730,COLONIAL & 31ST,0
37.138071,,-76.521082,2697,DENBIGH & JEFFERSON,0
37.140655,,-76.518167,2696,DENBIGH & STONEY CREEK,0
37.142442,,-76.516572,2695,DENBIGH & CEDARWOOD,0
37.146401,,-76.513049,2693,DENBIGH & RIDGEWOOD,0
37.149057,,-76.505204,2692,WOODSIDE & OLD DENBIGH,0
37.148559,,-76.51078,2691,DENBIGH & OLD DENBIGH,0
37.146073,,-76.512966,2690,DENBIGH & RIDGEWOOD,0
37.000045,,-76.432427,3226,JEFFERSON & PENINSULA,0
36.778814,,-76.096466,3221,PRINCESS ANNE & CONCERT,0
36.988468,,-76.425325,3220,JEFFERSON & 36TH,0
36.7948,,-76.093973,1362,LYNNHAVEN & PRIMROSE,0
37.010874,,-76.439094,3231,JEFFERSON & ADENA,0
37.025756,,-76.448337,3237,JEFFERSON & WILCOX,0
36.824005,,-76.340615,1618,TURNPIKE & LENORA,0
36.826359,,-76.3367,1619,TURNPIKE & FREDERICK,0
36.819476,,-76.348051,1617,TURNPIKE & UTAH,0
36.81819,,-76.372444,1614,PORTSMOUTH & BYERS,0
36.814096,,-76.355068,1615,MCLEAN & COURT,0
36.819345,,-76.379181,1612,PORTSMOUTH & HAYSOM,0
36.818563,,-76.37486,1613,PORTSMOUTH & STANLEY,0
36.821324,,-76.422424,1610,PORTSMOUTH & CAPRI,0
36.820672,,-76.386766,1611,PORTSMOUTH & ROBIN,0
36.796641,,-76.087812,1363,LYNNHAVEN & CRIMSON HOLLY,0
37.087292,,-76.383258,2872,ARMISTEAD & SONNY HUTCHINS,0
37.092679,,-76.390489,2870,COMMANDER SHEPPARD & SPINNAKER,0
37.065027,,-76.386198,2876,ARMISTEAD & BUTLER FARM,0
37.06838,,-76.385023,2875,ARMISTEAD & SACRAMENTO,0
37.0701,,-76.384046,2874,ARMISTEAD & NETTLES,0
37.055987,,-76.398286,2879,HARDY CASH & EXECUTIVE,0
37.055882,,-76.40111,2878,HARDY CASH & HAMPTON CLUB,0
36.856605,,-76.280043,3354,VIRGINIA BEACH & LINCOLN,0
37.0461,,-76.394995,3357,CUNNINGHAM & HARTFORD,0
37.098831,,-76.475985,3356,CANON & ACHIEVEMENT,0
36.844255,,-76.072514,3351,VIRGINIA BEACH & LYNNHAVEN,0
36.851539,,-76.178725,3352,NEWTOWN & ELAM,0
37.084766,,-76.472574,3358,THIMBLE SHOALS & MOBJACK,0
36.781355,,-76.335865,3781,GEORGE WASHINGTON & GILMERTON,0
36.945206,,-76.295872,5890,4TH & BELLINGER,0
36.830488,,-76.260359,0961,INDIAN RIVER & CAMPOS,0
36.824155,,-76.321498,1768,LINCOLN & DEEP CREEK,0
37.039287,,-76.382447,5893,SAVILLE & WALMART,0
36.793727,,-76.098855,1361,ROSEMONT & PRIMROSE,0
36.82008,,-76.324448,1762,COLUMBUS & LEXINGTON,0
36.821559,,-76.324913,1763,COLUMBUS & JEFFERSON,0
36.815066,,-76.329329,1760,DEEP CREEK & PENNOCK,0
36.817709,,-76.326836,1761,DEEP CREEK & FREDERICK,0
36.823817,,-76.32502,1765,COLUMBUS & LINCOLN,0
36.855787,,-76.206936,1142,VIRGINIA BEACH & MILITARY,0
36.856076,,-76.215197,1143,VIRGINIA BEACH & BRIAR HILL,0
36.855535,,-76.199296,1140,VIRGINIA BEACH & BURLING,0
36.855631,,-76.202499,1141,VIRGINIA BEACH & GLENROCK,0
36.852684,,-76.250004,1147,VIRGINIA BEACH & GODFREY,0
36.856247,,-76.219307,1144,VIRGINIA BEACH & RABY,0
36.852369,,-76.252769,1148,VIRGINIA BEACH & MERRIMAC,0
36.852299,,-76.255493,1149,VIRGINIA BEACH & NORCHESTER,0
36.858697,,-76.30349,8001_merged_9740039,EVMC FORT NORFOLK STATION,0
36.81921,,-76.311023,1546,PORTSMOUTH & ELM,0
36.866802,,-76.292939,0754,COLONIAL & SPOTSWOOD,0
36.8172,,-76.324417,1544,PORTSMOUTH & FREDERICK,0
36.818747,,-76.307778,1543,PORTSMOUTH & CHESTNUT,0
36.81522,,-76.144372,1540,PRINCESS ANNE & EDWIN,0
36.825026,,-76.156198,1541,PRINCESS ANNE & HARTSDALE,0
36.859818,,-76.298497,0204,OLNEY & STOCKLEY GARDENS,0
36.819381,,-76.314354,1548,PORTSMOUTH & ACORN,0
36.818752,,-76.317511,1549,PORTSMOUTH & LANSING,0
37.03739,,-76.399454,2382,POWER PLANT & QUEEN,0
36.858988,,-76.296812,0203,OLNEY & COLONIAL,0
36.779843,,-76.337432,1784,CAMELOT & GEORGE WASHINGTON,0
36.783238,,-76.346629,1785,KING AUTHUR & AARON,0
37.026039,,-76.356271,2262,QUEEN & BACKRIVER,0
36.842736,,-76.23502,8009_merged_9740042,INGLESIDE ROAD STATION,0
36.81607,,-76.36217,5618,PORTSMOUTH & MOHAWK,0
37.025852,,-76.35327,2261,QUEEN & STEWART,0
37.029359,,-76.352763,5612,PEMBROKE & WAVERLY,0
37.029498,,-76.352087,5613,PEMBROKE & WAVERLY,0
36.835626,,-76.178668,5611,PRINCESS ANNE & HILL PRINCE,0
36.819837,,-76.324367,5616,COLUMBUS & LEXINGTON,0
36.934663,,-76.254124,5617,TIDEWATER & EVANS,0
36.959383,,-76.260198,5614,OCEAN VIEW & 4TH VIEW,0
37.028907,,-76.367051,2267,MICHIGAN & QUEEN 2,0
36.907785,,-76.098075,1389,SHORE & DUPONT,0
36.904255,,-76.125957,1384,SHORE & GREENWELL,0
36.905482,,-76.119925,1385,SHORE & TREASURE ISLAND,0
36.907718,,-76.102231,1387,SHORE & STRAFFORD,0
36.907189,,-76.111934,1380,SHORE & BAYVILLE,0
36.905792,,-76.119631,1381,SHORE & TREASURE ISLAND,0
36.904912,,-76.123935,1382,SHORE & VANTAGE,0
36.904431,,-76.126366,1383,SHORE & GREENWELL,0
36.812339,,-76.256428,3826,PARKSIDE & CAMPOSTELLA,0
36.805482,,-76.255801,3825,CAMPOSTELLA & HUNTERDALE,0
36.713745,,-76.253194,3823,CEDAR & BARTELL,0
36.709914,,-76.264827,3822,CEDAR & PINES OF WARRICK,0
36.714295,,-76.28093,3821,CEDAR & CEDAR COMMONS,0
36.719583,,-76.287506,3820,CEDAR & LAS GAVIOTAS,0
36.758243,,-76.249277,0853,BATTLEFIELD & LENORE,0
36.754329,,-76.247564,0852,BATTLEFIELD & OAK GROVE,0
36.745784,,-76.244451,0851,BATTLEFIELD & MEDICAL,0
36.742196,,-76.243145,0850,BATTLEFIELD & GAINSBOROUGH,0
36.815738,,-76.259208,0857,BORDER & BETHEL,0
36.813681,,-76.2491,0856,STALHAM & SHADY,0
36.811926,,-76.249546,0855,STALHAM & FIRESIDE,0
36.762686,,-76.250936,0854,BATTLEFIELD & THRASHER,0
36.822724,,-76.261408,0859,BERKLEY & CAMPOSTELLA,0
36.824858,,-76.266771,0858,BERKLEY & CRYSTAL,0
36.852657,,-76.275101,0521,TIDEWATER & OLNEY,0
36.866295,,-76.269081,0527,TIDEWATER & LINDENWOOD,0
36.858698,,-76.272383,0524,TIDEWATER & GOFF,0
36.872026,,-76.265574,0529,TIDEWATER & SHOOP,0
36.870496,,-76.266187,0528,TIDEWATER & HANCOCK,0
37.063683,,-76.489911,2761,WARWICK & SWEETBRIAR,0
37.02778,,-76.347639,3011_merged_9740007,LINCOLN & FRANKLIN,0
37.107636,,-76.495526,5271,JEFFERSON & HQ,0
36.874289,,-76.270832,0290,LAFAYETTE & DUPONT,0
36.878018,,-76.26552,0293,LAFAYETTE & LORRAINE,0
36.876987,,-76.267388,0292,LAFAYETTE & BELLEVUE,0
36.877593,,-76.263766,0294,LAFAYETTE & TIDEWATER,0
36.876799,,-76.260429,0297,LAFAYETTE & BAPAUME,0
36.865543,,-76.170403,5872,DIAMOND SPRINGS & NEWTOWN,0
36.862025,,-76.173028,5873,NEWTOWN & DANIEL SMITH,0
36.870891,,-76.169692,5870,WESLEYAN & DIAMOND SPRINGS,0
36.868257,,-76.171007,5871,DIAMOND SPRINGS & HAMPSHIRE,0
36.870497,,-76.169125,5876,WESLEYAN & DIAMOND SPRINGS,0
36.871446,,-76.252587,0988,BALLENTINE & PETERSON,0
36.865506,,-76.170117,5874,DIAMOND SPRINGS & NEWTOWN,0
36.868082,,-76.170575,5875,DIAMOND SPRINGS & SHURNEY,0
36.853704,,-76.28455,0455,BRAMBLETON & SAINT PAULS,0
36.851191,,-76.28335,0454,WOOD & CHURCH,0
36.937093,,-76.25423,0981,TIDEWATER & BECK,0
36.933628,,-76.253672,0980,TIDEWATER & BAYVIEW,0
36.942758,,-76.256756,0983,TIDEWATER & RANDALL,0
36.939113,,-76.254553,0982,TIDEWATER & CHESTER,0
36.857479,,-76.29362,0276,OLNEY & CHRYSLER MUSEUM,0
36.859485,,-76.298028,0275,OLNEY & MOWBRAY ARCH,0
36.862505,,-76.300067,0273,COLLEY & RALEIGH,0
36.864004,,-76.301381,0272,REDGATE & COLLEY,0
37.037223,,-76.39797,2200,POWER PLANT & QUEEN,0
36.87854,,-76.282213,0184,GRANBY & 35TH,0
37.033936,,-76.396679,2202,QUEEN & CORNELIUS,0
36.87282,,-76.281556,0186,MONTICELLO & 29th,0
36.890626,,-76.27918,0181,GRANBY & WILLOW WOOD,0
36.894483,,-76.279345,0180,GRANBY & SEVERN,0
37.023755,,-76.374482,2206,QUEEN & ADRIAN,0
36.885762,,-76.281352,0182,GRANBY & 42ND,0
37.025983,,-76.36773,2208,QUEEN & MICHIGAN,0
37.026968,,-76.366759,2209,MICHIGAN & QUEEN,0
36.866185,,-76.284521,0189,MONTICELLO & 19TH,0
36.870229,,-76.28279,0188,MONTICELLO & 25TH,0
36.901933,,-76.254755,0673,WIDGEON & WHITEHORN,0
36.9024,,-76.250674,0672,WIDGEON & PUGH,0
36.902429,,-76.247466,0671,WIDGEON & THAXTON,0
36.902466,,-76.243817,0670,WIDGEON & GREGORY,0
36.889009,,-76.238326,0677,SEWELLS POINT & CHESAPEAKE,0
36.892188,,-76.238911,0676,SEWELLS POINT & GREENWOOD,0
36.896656,,-76.241002,0675,SEWELLS POINT & QUAIL,0
37.019177,,-76.429606,2429,ROANOKE & 76TH,0
37.007067,,-76.430025,2421,MARSHALL & RICHARDS,0
37.010888,,-76.432495,2423,MARSHALL & HILTON,0
37.013585,,-76.43419,2424,MARSHALL & 72ND,0
37.015294,,-76.435247,2425,MARSHALL & 74TH,0
37.016947,,-76.431155,2427,74TH & ORCUTT,0
36.933989,,-76.209033,0071,OCEAN VIEW & 7TH BAY,0
36.935193,,-76.213657,0070,OCEAN VIEW & 3RD BAY,0
36.933179,,-76.205927,0072,OCEAN VIEW & 10TH BAY,0
36.931473,,-76.199162,0075,OCEAN VIEW & 16TH BAY,0
36.931904,,-76.200914,0074,OCEAN VIEW & 14TH BAY,0
36.930444,,-76.193573,0077,OCEAN VIEW & 20TH BAY,0
36.928998,,-76.191608,0079,SHORE & PLEASANT,0
36.979655,,-76.400787,2515,GARDEN & ROANOKE,0
36.981467,,-76.400529,2516,GARDEN & 16TH,0
36.980913,,-76.4023,2517,16TH & CHESTNUT,0
36.978335,,-76.409132,2510,WICKHAM & 16TH,0
36.823064,,-76.342376,9433,TURNPIKE & FAQUIER,0
36.979027,,-76.404827,2512,ROANOKE & 15TH,0
36.79302,,-76.344748,9431,BEECHDALE & GUST,0
37.124721,,-76.531712,2734,WARWICK & TABBS,0
37.122444,,-76.528741,2735,WARWICK & SHERWOOD,0
37.11921,,-76.524469,2736,WARWICK & SHAWN,0
37.117889,,-76.522781,2737,WARWICK & CAMPBELL,0
37.132915,,-76.543106,2731,WARWICK & OLD COURTHOUSE,0
37.130399,,-76.539187,2732,WARWICK & ORIANA,0
37.128265,,-76.536309,2733,WARWICK & DENBIGH,0
36.8537,,-75.977642,9349,PACIFIC & 25TH1/2,0
37.113392,,-76.518981,2739,WARWICK & COLONY,0
36.887783,,-76.288283,9185,NEWPORT & RHODE ISLAND,0
36.842512,,-76.020216,5058,VIRGINIA BEACH & FIRST COLONIAL,0
36.898878,,-76.242638,9181,PHILPOTTS & SEWELLS POINT,0
36.853373,,-75.976555,5054,ATLANTIC & 25TH,0
36.833898,,-75.971236,5056,ATLANTIC & 5TH,0
36.81646,,-76.32811,1815,PORTSMOUTH & DEEP CREEK,0
36.815664,,-76.339589,1816,PORTSMOUTH & TRUXTON,0
36.815922,,-76.33626,1811,PORTSMOUTH & MAGNOLIA,0
36.815751,,-76.339604,1813,PORTSMOUTH & TRUXTON,0
36.862264,,-76.393365,1819,CHURCHLAND & TYRE NECK,0
36.974683,,-76.416995,2802,JEFFERSON & 16TH,0
36.85135,,-76.285047,0404_merged_9740008,SAINT PAULS & WOOD,0
36.885522,,-76.244597,0368,CHESAPEAKE & NANSEMOND,0
36.822482,,-76.297418,9417,PORT CENTRE & MADISON,0
36.822083,,-76.420331,1609,PORTSMOUTH & WEST CAPRI CIRCLE,0
36.823952,,-76.41165,1608,PORTSMOUTH & TAYLOR,0
37.00695,,-76.436687,3229,JEFFERSON & BOONE,0
37.003807,,-76.434737,3228,JEFFERSON & TEMPLE,0
37.088467,,-76.431461,3134,SAUNDERS & QUARTER PATH,0
36.816274,,-76.362152,1601,PORTSMOUTH & MOHAWK,0
36.814365,,-76.355491,1600,MCLEAN & AIRLINE,0
36.818256,,-76.371891,1603,PORTSMOUTH & BYERS,0
36.817163,,-76.365751,1602,PORTSMOUTH & CATAWBA,0
36.819614,,-76.379572,1605,PORTSMOUTH & ELMHURST,0
36.818896,,-76.375505,1604,PORTSMOUTH & JEWELL,0
36.82148,,-76.390168,1607,PORTSMOUTH & BOB WHITE,0
36.820902,,-76.386875,1606,PORTSMOUTH & ROBIN,0
36.944373,,-76.299387,8858,BELLINGER & THIRD,0
36.824653,,-76.239584,0816,INDIAN RIVER & SAINT LAWRENCE,0
36.947691,,-76.310679,8851,GILBERT & FARRAGUT,0
36.997891,,-76.389349,2162,KECOUGHTAN & HOLLYWOOD,0
36.893499,,-76.238262,0363,CHESAPEAKE & STRAND,0
36.897183,,-76.238831,0362,CHESAPEAKE & PICADILLY,0
37.056374,,-76.401603,2848,HARDY CASH & HAMPTON CLUB,0
37.056269,,-76.395673,2846,HARDY CASH & PEABODY,0
37.056144,,-76.398746,2847,HARDY CASH & EXECUTIVE,0
37.142773,,-76.523575,2844,JEFFERSON & BUCHANAN,0
37.055356,,-76.392243,2845,COLISEUM & CAREPLEX,0
37.048079,,-76.390923,2842,COLISEUM & MARCELLA,0
37.145402,,-76.525496,2843,JEFFERSON & HANOVER,0
37.040134,,-76.38741,2840,COLISEUM & CONVENTION,0
36.776398,,-76.240448,4005,KRISTINA & CROSSWAYS,0
37.13978,,-76.520779,3320,JEFFERSON & DENBIGH,0
37.144007,,-76.524176,3321,JEFFERSON & BUCHANAN,0
37.150018,,-76.529006,3322,JEFFERSON & RICHNECK,0
37.153208,,-76.53149,3323,JEFFERSON & MEADOW CREEK,0
37.156543,,-76.534027,3324,JEFFERSON & GREEN GROVE,0
36.81021,,-76.218421,0811,MILITARY & AUBURN,0
37.166317,,-76.541638,3326,JEFFERSON & SHIELDS,0
37.171434,,-76.545773,3327,JEFFERSON & WOODCREEK,0
37.175676,,-76.569517,3328,WARWICK & DOZIER,0
37.180909,,-76.569947,3329,WARWICK & ENTERPRISE,0
36.853569,,-76.293885,8002_merged_9740019,YORK STREET/FREEMASON,0
36.808981,,-76.218019,0810,AUBURN & MILITARY,0
36.830667,,-76.312653,1775,ELM & SOUTH,0
36.825819,,-76.312417,1774,ELM & RANDOLPH,0
36.824265,,-76.317599,1771,LINCOLN & LANSING,0
36.824205,,-76.319382,1770,LINCOLN & PIEDMONT,0
36.824405,,-76.312703,1773,LINCOLN & CAMDEN,0
36.969697,,-76.413893,2806,JEFFERSON & 6TH,0
36.861351,,-76.278526,5734_merged_9740010,CHURCH & WASHINGTON,0
36.865058,,-76.251028,2998,BALLENTINE & MCLEMORE,0
36.857893,,-76.284408,1159,VIRGINIA BEACH & SALTER,0
37.025611,,-76.313975,2999,MALLORY & SHERWOOD,0
36.854537,,-76.273983,1155,VIRGINIA BEACH & TIDEWATER,0
36.852388,,-76.267301,1154,VIRGINIA BEACH & MARSHALL,0
36.855364,,-76.276599,1156,VIRGINIA BEACH & CHAPEL,0
36.852147,,-76.25897,1151,VIRGINIA BEACH & OAKLAWN,0
36.852136,,-76.263726,1153,VIRGINIA BEACH & COVENANT,0
37.0276,,-76.362249,5518,PEMBROKE & PARKDALE,0
36.819599,,-76.255568,5511,BETHEL & BERKLEY,0
36.821006,,-76.253688,5510,BETHEL & HARLING,0
36.789169,,-76.263176,5512,CAMPOSTELLA & DIAMOND HILL,0
36.825139,,-76.067046,5515,LYNNHAVEN & GUARDIAN,0
36.796918,,-76.258343,5514,CAMPOSTELLA & DEXTER,0
36.825237,,-76.067268,5516,LYNNHAVEN & GUARDIAN,0
36.83136,,-76.300809,1551,PORT CENTRE & BART,0
36.833904,,-76.299423,1550,COUNTY & COURT,0
36.820688,,-76.301803,1553,MADISON & 7TH,0
36.811377,,-76.315916,1555,GEORGE WASHINGTON & FREDERICK,0
36.81349,,-76.313386,1554,GEORGE WASHINGTON & WIRT,0
36.804785,,-76.321445,1557,GEORGE WASHINGTON & HANBURY,0
36.80749,,-76.319241,1556,GEORGE WASHINGTON & GREENWOOD,0
36.80248,,-76.32037,1559,AFTON & BURTIS,0
36.802769,,-76.32184,1558,AFTON & GEORGE WASHINGTON,0
37.021317,,-76.394873,3036,BRIARFIELD & PICKETT,0
37.03271,,-76.305979,2993,MALLORY & SARGEANT,0
36.842685,,-76.246055,3030,KIMBALL & WILEY,0
37.030528,,-76.309278,2995,MALLORY & BERKLEY,0
36.773222,,-76.307934,3032,MILITARY & SHELL,0
37.027451,,-76.312819,2997,MALLORY & WILSON,0
37.037246,,-76.29909,2990,MALLORY & AL,0
36.972486,,-76.415641,2804,JEFFERSON & 12TH,0
37.034562,,-76.303152,2991,MALLORY & DARBY,0
36.917879,,-76.197585,0560,LITTLE CREEK & WOODALL,0
37.018872,,-76.401688,3037,BRIARFIELD & PARKINSON,0
36.77347,,-76.308155,3031,MILITARY & SHELL,0
36.857604,,-76.289549,5605,VIRGINIA BEACH & GRANBY,0
36.863719,,-75.979485,5604,ATLANTIC & 36TH,0
36.857219,,-76.29049,5607,VIRGINIA BEACH & BOUSH,0
36.857658,,-76.289109,5606,VIRGINIA BEACH & GRANBY,0
37.0291,,-76.356486,5601,PEMBROKE & BACK RIVER,0
37.029304,,-76.355783,5600,PEMBROKE & BACK RIVER,0
37.02474,,-76.390728,3033,BRIARFIELD & WARD,0
36.793789,,-76.401078,1904,AIRLINE & QUAILSHIRE,0
37.015011,,-76.442046,3291,JEFFERSON & ODUM,0
36.852222,,-75.976047,4001,ATLANTIC & 24TH,0
37.012386,,-76.440453,3292,JEFFERSON & PATS,0
36.880873,,-76.044346,1399,GREAT NECK & MILLWOOD,0
36.886342,,-76.049197,1398,GREAT NECK & SHOREHAVEN,0
36.88915,,-76.051412,1397,GREAT NECK & FALCON,0
36.891828,,-76.055481,1396,GREAT NECK & RIVER,0
36.894957,,-76.060137,1395,GREAT NECK & WIMBLEDON POINT,0
36.910958,,-76.072667,1392,SHORE & EBB TIDE,0
36.910671,,-76.074575,1391,SHORE & SEA SHELL,0
36.910189,,-76.077751,1390,SHORE & STARFISH,0
37.030809,,-76.342949,3812,PEMBROKE & WASHINGTON,0
37.033099,,-76.326433,3813,PEMBROKE & THEODORE,0
36.834358,,-76.340694,3810,HIGH & POTAMAC,0
37.019636,,-76.321788,3811,COUNTY & BOOKER,0
37.01938,,-76.398822,3817,BRIARFIELD & NORTHWOOD,0
37.039161,,-76.295767,3814,MALLORY & HERBERT,0
37.02217,,-76.325546,3815,COUNTY & FRISSELL,0
37.018946,,-76.402182,3818,BRIARFIELD & PARKINSON,0
36.77734,,-76.003881,3819,GENERAL BOOTH & GUNN HALL,0
36.928979,,-76.191279,0869,SHORE & PLEASANT,0
36.8923,,-76.14,0866,INDEPENDENCE & LAKESIDE,0
36.896646,,-76.139045,0867,PLEASURE HOUSE & THOROUGHGOOD SQ,0
36.832287,,-76.261758,0862,CAMPOSTELLA & CANTON,0
36.835423,,-76.26302,0863,CAMPOSTELLA & ARLINGTON,0
36.82357,,-76.260488,0860,CAMPOSTELLA & BERKLEY,0
36.828269,,-76.260968,0861,CAMPOSTELLA & MELON,0
36.836109,,-76.285808,0514,INDIAN RIVER & STATE,0
36.834661,,-76.285268,0515,STATE & CLIFTON,0
36.83534,,-76.281966,0513,MAIN & INDIAN RIVER,0
36.829882,,-76.281417,0510,LIBERTY & GRAYSON,0
36.832272,,-76.283308,0511,MAIN & BERKLEY,0
36.855148,,-76.38378,4004,HIGH & FERGUSON,0
36.817552,,-76.266894,0474_merged_9740027,LIBERTY & TRANSYLVANIA,0
36.89235,,-76.168752,1326,NORTHAMPTON & BAYSIDE,0
36.809983,,-76.099176,1425,ROSEMONT & BUNYAN,0
36.891649,,-76.237966,0364,CHESAPEAKE & GREEN,0
36.828736,,-76.280434,0468,LIBERTY & LANCASTER,0
36.826813,,-76.278496,0469,LIBERTY & SHERMAN,0
36.867026,,-76.16156,5869,BROAD MEADOWS & HENDERSON,0
36.865603,,-76.158316,5868,NEWTOWN & LEARNING,0
36.871905,,-76.143276,5865,HAYGOOD & HUNTING HILL,0
36.875146,,-76.13561,5864,HAYGOOD & INDEPENDENCE,0
36.868939,,-76.150572,5867,HAYGOOD & HAYGOOD,0
36.870359,,-76.147095,5866,HAYGOOD & CROSSBROUGH,0
36.829782,,-76.281479,0467,LIBERTY & GRAYSON,0
36.832249,,-76.28351,0465,MAIN & BERKLEY,0
36.930416,,-76.31805,0243,HAMPTON & MAPLESHADE,0
36.936458,,-76.31854,0240,HAMPTON & B,0
36.925429,,-76.31744,0246,HAMPTON & HELMICK,0
36.929273,,-76.317918,0244,HAMPTON & BEECHWOOD,0
36.927636,,-76.317767,0245,HAMPTON & GLENDALE,0
36.923566,,-76.316509,0248,HAMPTON & BAKER,0
37.037236,,-76.298606,2183,MALLORY & AL,0
37.028634,,-76.415917,2182,WEAVER & PENNWOOD,0
36.999604,,-76.384305,2181,KECOUGHTAN & PIEDMONT,0
37.013456,,-76.365961,2333,VICTORIA & ALGONQUIN,0
36.881515,,-76.233768,0646,SEWELLS POINT & KENNEBECK,0
37.025997,,-76.361356,2212,QUEEN & PATTERSON,0
37.028534,,-76.363008,2211,LASALLE & GEORGIA,0
37.028767,,-76.36687,2210,MICHIGAN & QUEEN 2,0
37.030315,,-76.344278,2217,PEMBROKE & WINE,0
37.025769,,-76.354056,2216,QUEEN & STEWART,0
36.862206,,-76.234217,0640,AZALEA GARDEN & VILLAGE,0
37.025941,,-76.358043,2214,QUEEN & MAPLEWOOD,0
37.030892,,-76.341211,2219,PEMBROKE & CENTER,0
36.895405,,-76.239925,0649,SEWELLS POINT & PARTRIDGE,0
36.917897,,-76.264448,0884,LITTLE CREEK & FORT WORTH,0
36.918067,,-76.261962,0885,LITTLE CREEK & GALVESTON,0
36.917443,,-76.258805,0886,LITTLE CREEK & DALLAS,0
36.916585,,-76.255928,0887,LITTLE CREEK & VAN PATTEN,0
36.914987,,-76.275257,0881,LITTLE CREEK & COLONIAL,0
36.917769,,-76.27086,0882,TAUSSIG & GRANBY,0
36.917558,,-76.270035,0883,TAUSSIG & LITTLE CREEK,0
36.907783,,-76.238695,0888,JOHNSTONS & AUBURN,0
37.017139,,-76.431034,2439,74TH & ORCUTT,0
37.018715,,-76.429443,2438,ROANOKE & 75TH,0
36.795335,,-76.3477,2433,GUST & MARCY,0
37.035222,,-76.397958,2432,QUEEN & WEAVER,0
37.021826,,-76.422132,2431,LASSITER & MARTHA LEE,0
37.020661,,-76.425891,2430,76TH & CHESTNUT,0
37.020757,,-76.426156,2437,76TH & CHESTNUT,0
37.021858,,-76.422371,2436,76TH & MARTHA LEE,0
37.018607,,-76.443928,2434,JEFFERSON & MERCURY,0
36.792884,,-76.364095,9429,ROOSEVELT & VAUGHN,0
36.906801,,-76.161363,0088,SHORE & LAKE SHORES,0
36.906886,,-76.155726,0089,SHORE & JACK FROST,0
36.979588,,-76.409916,2509,WICKHAM & 18TH,0
36.981952,,-76.411466,2507,HAMPTON & WICKHAM,0
36.980873,,-76.414138,2506,HAMPTON & MARSHALL,0
36.979794,,-76.416842,2505,HAMPTON & MADISON,0
36.978982,,-76.418816,2504,HAMPTON & JEFFERSON,0
36.92109,,-76.192663,0080,SHORE & DUNNING,0
36.980849,,-76.420787,2502,JEFFERSON & 25TH,0
36.797183,,-76.370622,9427,DARREN & HORNE,0
36.985499,,-76.435211,2500,WASHINGTON & 37TH,0
37.145199,,-76.549841,2727,WARWICK & CHECED WAY,0
37.151111,,-76.553856,2725,WARWICK & THORNCLIFF,0
37.154175,,-76.555353,2724,WARWICK & WOODHAVEN,0
37.156368,,-76.55622,2723,WARWICK & HICKORY POINT,0
37.159949,,-76.557336,2721,WARWICK & WARWICK LANDING,0
37.163393,,-76.557233,2720,WARWICK & WILLIAMSON,0
37.14076,,-76.54714,2729,WARWICK & BEXLEY PARK,0
37.142656,,-76.548196,2728,WARWICK & CURTIS TIGNOR,0
36.815616,,-76.258958,9196,BORDER & BETHEL,0
36.817617,,-76.252028,9199,WINGFIELD & BERKLEY,0
36.817157,,-76.066961,5042,LYNNHAVEN & INTERNATIONAL,0
36.817946,,-76.321462,1807,PORTSMOUTH & ROANOKE,0
36.790208,,-76.113988,3783,PRINCESS ANNE & INDEPENDENCE,0
36.782944,,-76.334676,3780,GEORGE WASHINGTON & WOODLAND,0
36.815606,,-76.34227,1804,PORTSMOUTH & RODMAN,0
36.779834,,-76.331387,1802,GILMERTON & ALBERT,0
36.879655,,-76.303207,3784,38TH & HAMPTON,0
36.888835,,-76.30277,3785,HAMPTON & SHELL STATION,0
36.842436,,-76.017831,3788,VIRGINIA BEACH & WEST,0
36.816216,,-76.331676,1809,PORTSMOUTH & DAHLIA,0
36.817466,,-76.323781,1808,PORTSMOUTH & COLUMBUS,0
37.106894,,-76.490621,9511,CRISTON & HANCOCK,0
36.799553,,-76.260779,5939,BROAD & ACORN,0
36.850674,,-76.251539,0704,CORPREW & GATE HOUSE,0
37.069473,,-76.471857,3258,JEFFERSON & GROOME,0
37.071594,,-76.473151,3259,JEFFERSON & ROBINSON,0
36.947351,,-76.319116,8864,GILBERT & MARYLAND,0
36.951234,,-76.323191,8865,VIRGINIA & DILLINGHAM,0
36.947465,,-76.316549,8863,GILBERT & BACON,0
36.843828,,-75.983515,1525,VIRGINIA BEACH & CYPRESS,0
37.050065,,-76.460213,3250,JEFFERSON & LYLISTON,0
37.053159,,-76.461762,3252,JEFFERSON & GAMBOL,0
37.056731,,-76.464031,3253,JEFFERSON & DRESDEN,0
36.759084,,-76.005692,1526,UPTON & NIMMO,0
37.06653,,-76.470054,3257,JEFFERSON & WINSTON,0
36.878778,,-75.98481,1255,ATLANTIC & 52ND,0
37.061426,,-76.411796,2858,BUTLER FARM & LUCAS 1,0
36.831346,,-76.331391,1622,ROMANESQUE & MARKHAM,0
37.062205,,-76.408287,2853,BUTLER FARM & LUCAS 1,0
37.063461,,-76.402253,2852,BUTLER FARM & MAGRUDER,0
37.061539,,-76.414099,2855,BUTLER FARM & OLD MALLORY,0
37.061737,,-76.411324,2854,BUTLER FARM & LUCAS 2,0
37.061293,,-76.41408,2857,BUTLER FARM & OLD MALLORY,0
37.061897,,-76.418997,2856,THOMAS NELSON COMMUNITY COLLEGE,0
36.820658,,-75.982877,1490,GENERAL BOOTH & VA AQUARIUM,0
36.809431,,-75.990442,1492,GENERAL BOOTH & BIRDNECK,0
36.794737,,-75.995288,1493,GENERAL BOOTH & OCEANA,0
37.033277,,-76.325234,3337,PEMBROKE & MERCURY,0
36.914969,,-76.245928,3336,LITTLE CREEK & MERRITT,0
37.18526,,-76.571964,3334,WARWICK & HILLTOP,0
37.096864,,-76.453572,3203,HARPERSVILLE & BAYBERRY,0
37.121931,,-76.523373,3339,BLAND & CAMPBELL,0
37.046586,,-76.394372,3338,CUNNINGHAM & HARTFORD,0
36.84551,,-76.369046,1700,HIGH & SEAGROVE,0
36.846835,,-76.37161,1701,HIGH & SHIRLEY,0
36.840385,,-76.356258,1702,HIGH & GRAYSON,0
36.857743,,-76.387167,1703,HIGH & DOGWOOD,0
36.859468,,-76.389801,1704,HIGH & BON SECOURS,0
36.846656,,-76.371536,1705,HIGH & SHIRLEY,0
36.859637,,-76.389822,1706,HIGH & BON SECOURS,0
36.854044,,-76.382278,1707,HIGH & REESE,0
36.852363,,-76.379721,1709,HIGH & CEDAR,0
36.947282,,-76.318204,5185,GILBERT & BACON,0
36.843854,,-76.146386,1128,VIRGINIA BEACH & ARAGONA,0
36.843952,,-76.151045,1129,VIRGINIA BEACH & DORSET,0
36.840136,,-76.108262,1120,VIRGINIA BEACH & LYNN SHORES,0
36.841821,,-76.113595,1122,VIRGINIA BEACH & LOEHMANNS,0
36.843179,,-76.117512,1123,VIRGINIA BEACH & STEPNEY,0
36.843493,,-76.121661,1124,VIRGINIA BEACH & THALIA,0
36.84361,,-76.129456,1125,VIRGINIA BEACH & CONSTITUTION,0
36.843748,,-76.138386,1126,VIRGINIA BEACH & SECOND,0
36.843786,,-76.141509,1127,VIRGINIA BEACH & KELLAM,0
36.864095,,-76.25062,2989,BALLENTINE & DANA,0
36.88276,,-76.246878,0370_merged_9740015,CHESAPEAKE & NORLAND,0
37.044197,,-76.301919,2983,OLD BUCKROE & WOOD,0
36.841787,,-76.251943,3026,KIMBALL & COURT,0
37.041364,,-76.303822,2981,OLD BUCKROE & RICHARD,0
37.044833,,-76.312373,2980,ANDREWS & REDFORD,0
37.039686,,-76.295394,2987,MALLORY & SEABOARD,0
37.043431,,-76.294659,2985,BUCKROE & FOURTH,0
37.045091,,-76.300279,2984,BUCKROE & SEABOARD,0
36.966772,,-76.278156,1018,OCEAN VIEW & 10TH VIEW,0
36.96611,,-76.275467,1019,OCEAN VIEW & 9TH VIEW,0
36.966988,,-76.294026,1014,OCEAN VIEW & 15TH VIEW,0
36.967022,,-76.29098,1015,OCEAN VIEW & 14th VIEW,0
36.967041,,-76.286375,1016,OCEAN VIEW & LE CLAIR,0
36.967052,,-76.283874,1017,OCEAN VIEW & HANSFORD,0
36.966608,,-76.276315,1010,OCEAN VIEW & SALEM,0
36.862025,,-76.291088,1235,PRINCESS ANNE & PENDER,0
36.863593,,-76.294144,1236,PRINCESS ANNE & COLONIAL,0
36.8649,,-76.296921,1237,PRINCESS ANNE & MANTEO,0
36.858367,,-76.278794,1231,PRINCESS ANNE & CHURCH,0
36.860232,,-76.285318,1232,PRINCESS ANNE & ARMISTEAD,0
36.880274,,-76.307736,5670,ELKHORN & 39TH,0
36.882422,,-76.307823,5671,ELKHORN & 42ND,0
36.823732,,-76.152666,5672,PRINCESS ANNE & BAXTER,0
36.812806,,-76.216874,5674,MILITARY & PROVIDENCE,0
37.17595,,-76.589885,5675,HARWOOD & ENTERPRISE,0
36.798214,,-76.233701,5676,MILITARY & OLD GREENBRIER,0
36.750601,,-76.246208,5677,BATTLEFIELD & KNELLS RIDGE,0
36.788937,,-76.331786,5678,GEORGE WASHINGTON & FERNDALE,0
36.781376,,-76.343522,5679,CAMELOT & DEEP CREEK,0
37.013231,,-76.4406,3809,JEFFERSON & 74TH,0
36.991905,,-76.427385,3808,JEFFERSON & 41ST,0
36.872193,,-76.274752,3804,26TH & WAVERLY,0
36.834638,,-76.328299,3806,HIGH & HARBOR,0
36.952425,,-76.257388,3801,FIRST VIEW & GOVERNMENT,0
36.949755,,-76.260046,3803,FIRST VIEW & MAPLE,0
36.915623,,-76.28102,0878,LITTLE CREEK & SHERYL,0
36.915746,,-76.302074,0871,LITTLE CREEK & CORTLANDT,0
36.916062,,-76.296185,0873,LITTLE CREEK & TAPLEY,0
36.916053,,-76.297746,0872,LITTLE CREEK & ENFIELD,0
36.916101,,-76.293574,0874,LITTLE CREEK & DIVEN,0
36.916049,,-76.285261,0877,LITTLE CREEK & RUTHVEN,0
36.91614,,-76.290178,0876,LITTLE CREEK & ARMFIELD,0
36.825891,,-76.27765,0508,LIBERTY & SHERMAN,0
36.854465,,-76.238901,0636,VIRGINIA BEACH & INGLESIDE,0
36.811525,,-76.264636,0501,ATLANTIC & CULPEPPER,0
36.809514,,-76.264227,0500,ATLANTIC & POCAHONTAS,0
36.817813,,-76.267363,0503,LIBERTY & FITCHETT,0
36.815445,,-76.265466,0502,OLD ATLANTIC & JEFFERSON,0
36.819843,,-76.271665,0505,LIBERTY & POINDEXTER,0
36.818815,,-76.269752,0504,LIBERTY & COMMERCE,0
36.823088,,-76.275087,0507,LIBERTY & SEABOARD,0
36.822404,,-76.274406,0506,LIBERTY & 20th,0
36.84737,,-76.183809,0633,CENTER & NEWTOWN,0
36.942483,,-76.232542,0144,OCEAN VIEW & STURGIS,0
37.051223,,-76.300472,2948,ANDREWS & OLD BUCKROE,0
36.944158,,-76.235527,0146,OCEAN VIEW & BEACH VIEW,0
36.95021,,-76.246242,0149,OCEAN VIEW & NORFOLK,0
37.027732,,-76.347519,3011_merged_9740028,LINCOLN & FRANKLIN,0
36.814926,,-76.265479,0475,OLD ATLANTIC & JEFFERSON,0
36.807362,,-76.26402,0477,ATLANTIC & MYERS,0
36.811691,,-76.26487,0476,ATLANTIC & CULPEPPER,0
36.82312,,-76.275293,0471,LIBERTY & 16TH,0
36.820082,,-76.271275,0473,SEABOARD & LIBERTY,0
36.799165,,-76.258231,0479,BROAD & CAMPOSTELLA,0
36.804634,,-76.263469,0478,ATLANTIC & STRAWBERRY,0
37.110258,,-76.493928,5818,PATRICK HENRY MALL,0
37.013969,,-76.371072,5819,HAMPTON ROADS & SHELL,0
36.859387,,-76.275834,3060,GOFF & OKEEFE,0
36.894724,,-76.303353,0259,HAMPTON & ROCKBRIDGE,0
36.896363,,-76.303026,0258,HAMPTON & SURREY,0
36.910869,,-76.305971,0254,HAMPTON & NORTH SHORE,0
36.900518,,-76.303677,0256,HAMPTON & LEXAN,0
36.919166,,-76.312013,0250,HAMPTON & STAFF COLLEGE,0
36.914428,,-76.307234,0253,HAMPTON & RUNNYMEDE,0
36.91574,,-76.308324,0252,HAMPTON & LITTLE CREEK,0
37.047989,,-76.307749,2945,ANDREWS & NICKERSON,0
36.898912,,-76.242288,0651,SEWELLS POINT & PHILPOTTS,0
36.89709,,-76.241187,0650,SEWELLS POINT & QUAIL,0
36.89898,,-76.246145,0653,PHILPOTTS & PARTRIDGE,0
37.045696,,-76.310485,2944,AMHERST & ANDREWS,0
36.898737,,-76.248847,0654,PHILPOTTS & PIERCE,0
37.033059,,-76.333536,2228,PEMBROKE & HOLLY,0
36.901873,,-76.254551,0656,WIDGEON & WHITEHORN,0
37.027889,,-76.3238,2226,MERCURY & WOODLAND,0
37.025668,,-76.324945,2227,WOODLAND & OLD BUCKROE,0
37.031248,,-76.324893,2224,MERCURY & OLD POINT,0
36.98714,,-76.413008,2463,28TH & ORCUTT,0
37.033005,,-76.329823,2223,PEMBROKE & CYPRESS,0
37.032918,,-76.333754,2221,PEMBROKE & HOLLY,0
36.896058,,-76.224673,0896,MILITARY & MCGEE,0
36.898111,,-76.226118,0895,MILITARY & CRESCENT,0
36.901352,,-76.228459,0893,MILITARY & LONGDALE,0
36.904116,,-76.230477,0892,MILITARY & SPRINGMEADOW,0
36.906407,,-76.232187,0891,MILITARY & JOHNSTONS,0
36.908467,,-76.234982,0890,JOHNSTONS & MILITARY,0
36.892793,,-76.222259,0898,MILITARY & NORVELLA,0
36.813738,,-76.32898,9375,DEEP CREEK & ELLIOT,0
37.020935,,-76.441747,2088,MERCURY & NEWMARKET NORTH,0
37.014549,,-76.448478,2089,WARWICK & 75TH,0
37.0214,,-76.431596,2082,79TH & ROANOKE,0
37.020739,,-76.433235,2083,79TH & ORCUTT,0
37.022937,,-76.427773,2081,79TH & CHESTNUT,0
36.955092,,-76.254562,2086,1ST VIEW & PORTVIEW,0
36.93728,,-76.21936,2087,OCEAN VIEW & INLET,0
36.945043,,-76.270503,2084,1ST VIEW & BAY,0
36.948116,,-76.263503,2085,1ST VIEW & SAINT GEORGE,0
36.874325,,-76.134715,0099,INDEPENDENCE & HAYGOOD,0
36.879789,,-76.133334,0098,INDEPENDENCE & PAUL REVERE,0
36.884175,,-76.13474,0097,INDEPENDENCE & EWELL,0
36.894425,,-76.141963,0096,PLEASURE HOUSE & INDEPENDENCE,0
36.897829,,-76.138231,0095,PLEASURE HOUSE & FIRST COURT,0
36.901785,,-76.136599,0094,PLEASURE HOUSE & VICTORY,0
36.904538,,-76.137683,0093,SHORE & PLEASURE HOUSE,0
36.905568,,-76.145225,0092,SHORE & WELLINGS,0
36.989809,,-76.392753,2535,MAPLE & 19TH,0
37.1583,,-76.556598,2712,WARWICK & ASHTON GREEN,0
37.160454,,-76.556908,2713,WARWICK & WARWICK LANDING,0
37.154481,,-76.555077,2710,WARWICK & WOODHAVEN,0
37.12317,,-76.509688,3341,CHATHAM & HABERSHAM,0
37.160492,,-76.58025,2716,FORT EUSTIS,0
37.163176,,-76.55682,2714,WARWICK & WILLIAMSON,0
37.169199,,-76.562831,2715,WARWICK & LEES MILL,0
36.848303,,-76.186539,3346,NORTH CENTER & KEMPSVILLE,0
37.169541,,-76.56376,2719,WARWICK & LEES MILL,0
36.79244,,-76.117496,3347,PRINCESS ANNE & LYNNHAVEN,0
36.942896,,-76.31882,5079,HAMPTON & TAUSSIG,0
36.810365,,-76.27761,3344,BAINBRIDGE & HOLLY,0
36.846334,,-76.252505,5073,BALLENTINE & LRT STATION,0
36.834136,,-75.97117,5076,ATLANTIC & 6TH,0
36.817818,,-76.274831,1832,POINDEXTER & RODGERS,0
36.816361,,-76.277469,1833,POINDEXTER & STEWART,0
36.819057,,-76.272602,1830,POINDEXTER & B,0
36.844006,,-76.278042,8006_merged_9740017,HARBOR PARK,0
36.809988,,-76.277675,1836,BAINBRIDGE & HOLLY,0
36.755152,,-76.05937,3798,PRINCESS ANNE & NIMMO,0
36.813237,,-76.278342,1835,BAINBRIDGE & JEFFERSON,0
36.83465,,-76.332363,3794,HIGH & CUTHERELL,0
36.807699,,-76.277151,1838,BAINBRIDGE & LESTER,0
36.806119,,-76.276692,1839,BAINBRIDGE & HUGHES,0
36.842717,,-76.02262,3790,VIRGINIA BEACH & FIRST COLONIAL,0
36.834704,,-76.330023,3793,HIGH & VIRGINIA,0
36.873079,,-76.40209,3792,TOWNE POINT & PEPPERWOOD,0
36.838569,,-75.972362,9560,ATLANTIC & 11TH,0
37.007356,,-76.369835,2155,KECOUGHTAN & HAMPTON ROADS,0
36.989287,,-76.411079,2404,30TH & ROANOKE,0
37.005602,,-76.373137,2157,KECOUGHTAN & LITTLE FARMS,0
37.008139,,-76.361444,2151,KECOUGHTAN & EAST,0
36.985232,,-76.413253,2400,WICKHAM & 26TH,0
37.007824,,-76.366117,2153,KECOUGHTAN & ALGONQUIN,0
37.003862,,-76.376434,2158,KECOUGHTAN & POWHATAN,0
37.002068,,-76.379929,2159,KECOUGHTAN & WYTHE,0
36.99383,,-76.413706,2408,ROANOKE & 37TH,0
36.996433,,-76.415229,2409,ROANOKE & 41ST,0
36.859669,,-76.278192,5734_merged_9740031,CHURCH & GOFF,0
37.063252,,-76.427362,3065,BIG BETHEL & TOWN CENTER,0
36.830207,,-76.253972,0761,INDIAN RIVER & FORD,0
36.841048,,-76.190226,8011_merged_9740003,NEWTOWN ROAD,0
36.877948,,-76.294886,0427,COLLEY & 35TH,0
36.941135,,-76.325411,8871,SECOND & ESCORT,0
36.938407,,-76.325161,8870,SECOND & A,0
36.944879,,-76.299547,8873,THIRD & BELLINGER,0
37.047091,,-76.459715,3248,JEFFERSON & HEMLOCK,0
37.034766,,-76.453848,3242,JEFFERSON & WARWICKSHIRE,0
37.028482,,-76.449985,3240,JEFFERSON & NORTH,0
37.04416,,-76.459347,3247,JEFFERSON & MCLAWHORNE,0
37.041049,,-76.45777,3246,JEFFERSON & FRANCISCO,0
37.038013,,-76.455871,3244,JEFFERSON & VILLAGE,0
37.042575,,-76.427841,3053,BIG BETHEL & TODDS,0
36.828929,,-75.97361,1483,GENERAL BOOTH & RUDEE POINT,0
36.809553,,-75.990081,1481,GENERAL BOOTH & BIRDNECK,0
36.795102,,-75.990329,1480,KOA,0
36.86192,,-75.980003,1487,PACIFIC & 34TH,0
36.856138,,-75.978332,1486,PACIFIC & 28TH,0
36.836932,,-76.211838,3306,CORPORATE & MILITARY,0
36.839686,,-76.21357,3307,CORPORATE & ORION,0
36.82889,,-75.97395,1489,GENERAL BOOTH & HARBOUR,0
36.864269,,-75.980631,1488,PACIFIC & 36TH,0
36.993623,,-76.428809,3302,JEFFERSON & 44TH,0
36.834271,,-76.343656,1713,HIGH & LOUDOUN,0
36.834823,,-76.320575,1712,HIGH & WILLIAMSBURG,0
36.838967,,-76.353106,1711,HIGH & ORANGE,0
36.851583,,-76.378826,1710,HIGH & STERLING POINT,0
36.835314,,-76.304365,1716,HIGH & WASHINGTON,0
36.83537,,-76.301175,1715,HIGH & COURT,0
37.012752,,-76.35309,2146,KECOUGHTAN & IVY HOME,0
36.850882,,-76.284844,0404_merged_9740029,SAINT PAULS & WOOD,0
36.994407,,-76.420792,2414,41ST & MARSHALL,0
36.855309,,-76.194961,1139,VIRGINIA BEACH & KEMPSVILLE,0
36.8551,,-76.18794,1138,VIRGINIA BEACH & LAND,0
37.022046,,-76.35256,2141,KECOUGHTAN & LEE,0
36.849252,,-76.164845,1133,VIRGINIA BEACH & CLEARFIELD,0
36.846102,,-76.1571,1132,VIRGINIA BEACH & WITCHDUCK,0
36.84519,,-76.154878,1130,VIRGINIA BEACH & SOUTHGATE,0
36.854819,,-76.180979,1137,VIRGINIA BEACH & REEL,0
36.853525,,-76.175345,1136,VIRGINIA BEACH & FAIR MEADOWS,0
36.852572,,-76.173007,1135,VIRGINIA BEACH & DAVIS,0
36.850649,,-76.16827,1134,VIRGINIA BEACH & WEXFORD,0
37.03848,,-76.381884,2060,SAVILLE & PINE CHAPEL,0
36.934052,,-76.244611,0347,CHESAPEAKE & BAYVIEW,0
36.935937,,-76.244924,0346,CHESAPEAKE & EARL,0
37.175927,,-76.572432,3018,PICKETTS LINE & WARWICK,0
37.174369,,-76.580131,3019,PICKETTS LINE & ENTERPRISE,0
37.050394,,-76.347565,3010,KING & GILBERT,0
36.949712,,-76.319379,5941,MARYLAND & POWHATAN,0
36.766202,,-76.25201,3017,BATTLEFIELD & COASTAL,0
36.947862,,-76.264344,2065,1ST VIEW & SAINT GEORGE,0
36.945238,,-76.270322,2066,1ST VIEW & BAY,0
36.963967,,-76.267904,1009,OCEAN VIEW & 7TH VIEW,0
36.963099,,-76.266044,1008,OCEAN VIEW & 6TH VIEW,0
36.96111,,-76.262953,1007,OCEAN VIEW & 5TH VIEW,0
36.873124,,-76.252905,1004,BALLENTINE & HANBURY,0
36.87124,,-76.252439,1003,BALLENTINE & PETERSON,0
36.867638,,-76.251543,1001,BALLENTINE & TAIT,0
36.862571,,-76.250255,1000,BALLENTINE & TARRANT,0
36.854943,,-76.268239,1226,PRINCESS ANNE & MALTBY,0
36.854319,,-76.266296,1225,PRINCESS ANNE & MARSHALL,0
36.854003,,-76.263951,1224,PRINCESS ANNE & PARK,0
36.854467,,-76.261353,1223,PRINCESS ANNE & RAINEY,0
36.855599,,-76.256894,1222,PRINCESS ANNE & GRAND BASSA,0
36.857245,,-76.254029,1221,PRINCESS ANNE & MERRIMAC,0
36.857257,,-76.275447,1229,PRINCESS ANNE & CHAPEL,0
36.856445,,-76.273056,1228,PRINCESS ANNE & TIDEWATER,0
36.821961,,-75.981275,5667,AQUARIUM MUSEUM TURNABOUT,0
36.815098,,-75.988826,5666,MARSH PAVILION,0
36.881909,,-76.307965,5669,ELKHORN & 41ST,0
36.880089,,-76.307861,5668,ELKHORN & 39TH,0
37.052987,,-76.392357,2882,COLISEUM & SIGNATURE,0
37.040711,,-76.388024,2883,COLISEUM & CONVENTION,0
37.056118,,-76.395917,2880,HARDY CASH & PEABODY,0
37.055417,,-76.392601,2881,COLISEUM & HARDY CASH,0
37.030061,,-76.363283,2886,MICHIGAN & LASALLE,0
37.024626,,-76.362722,2887,SETTLERS LANDING & LASALLE,0
37.03879,,-76.386762,2884,COLISEUM & PINE CHAPEL,0
37.037785,,-76.384755,2885,PINE CHAPEL & COLISEUM,0
37.024342,,-76.356618,2888,SETTLERS LANDING & BACK RIVER,0
37.024206,,-76.353616,2889,SETTLERS LANDING & STEWART,0
36.915559,,-76.254389,0583,TIDEWATER & LITTLE CREEK,0
36.83274,,-75.970746,5787,ATLANTIC & 4TH,0
36.909969,,-76.256149,0584,TIDEWATER & BILTMORE,0
36.790662,,-76.244831,3878,MILITARY & GEORGETOWN,0
36.888309,,-76.220877,3879,AZALEA GARDEN & FARIS,0
36.894758,,-76.257205,0587,TIDEWATER & WAUKESHA,0
36.915878,,-76.304925,3874,LITTLE CREEK & SHIRLAND,0
36.835208,,-76.282161,0462,MAIN & INDIAN RIVER,0
36.834438,,-76.285038,0460,STATE & CLIFTON,0
36.799728,,-76.392731,1920,AIRLINE & AHOY,0
36.785341,,-75.999874,5719,GENERAL BOOTH & DAM NECK,0
36.858034,,-75.979096,5718,PACIFIC & 30TH,0
36.823426,,-75.977913,5716,GENERAL BOOTH & CROATAN,0
36.786118,,-76.106291,5715,COMMUNITY COLLEGE & PRINCESS ANNE,0
37.087932,,-76.48033,5714,FISHING POINT & GUM ROCK,0
37.06228,,-76.485255,5713,BOULEVARD PARK TRANSFER AREA,0
37.05461,,-76.463136,3274,JEFFERSON & DRESDEN,0
36.835202,,-76.296357,F002,FERRY STOP - HIGH ST,0
36.838848,,-76.296165,F003,FERRY STOP - NORTH LANDING,0
37.054668,,-76.330642,2959,FOX HILL & COLONIES LANDING,0
36.843292,,-76.290922,F001,FERRY STOP - WATERSIDE,0
36.799565,,-76.39277,1924,AIRLINE & AHOY,0
36.809882,,-76.256306,3907,CAMPOSTELLA & GIDEON,0
36.953205,,-76.327536,3900,DECATUR & HULL,0
36.771397,,-76.011098,3901,GENERAL BOOTH & REDMILL,0
36.768123,,-76.013377,3902,GENERAL BOOTH & LONDON BRIDGE,0
36.794255,,-75.995079,3903,GENERAL BOOTH & PROSPERITY,0
36.808345,,-76.371004,1927,AIRLINE & CITY PARK,0
36.809852,,-76.256184,3908,CAMPOSTELLA & SUNRISE,0
36.797137,,-76.367895,3112,HORNE & STAUFFER,0
36.785642,,-76.096892,0790,MICHAEL LA BOUVE & FACULTY,0
36.784984,,-76.09627,0791,FACULTY & MICHAEL LA BOUVE,0
36.789565,,-76.107651,0792,BUCKNER & RICA,0
36.79521,,-76.117274,0794,LYNNHAVEN & DAHLIA,0
36.792578,,-76.119882,0795,LYNNHAVEN & PRINCESS ANNE,0
36.789155,,-76.128706,0796,LYNNHAVEN & PISSARRO,0
36.788573,,-76.135888,0797,LYNNHAVEN & ROUNDHILL,0
36.787535,,-76.146075,0798,LYNNHAVEN & QUARTER,0
36.786484,,-76.151628,0799,LYNNHAVEN & PLEASANT VALLEY,0
36.858487,,-76.272944,0403,GOFF & TIDEWATER,0
36.848403,,-76.021436,1105,FIRST COLONIAL & DONNA,0
36.853978,,-76.279652,0406,CHURCH & OLNEY,0
36.85671,,-76.275127,0408,CHAPEL & PRINCESS ANNE,0
36.857103,,-76.273096,0409,TIDEWATER & PRINCESS ANNE,0
36.841657,,-75.973364,5803,ATLANTIC & 13TH,0
36.843611,,-75.9739,5802,ATLANTIC & 15TH,0
36.845209,,-75.974296,5801,ATLANTIC & 17TH,0
36.849328,,-75.975425,5800,ATLANTIC & 21ST,0
36.822766,,-76.302209,5807,7TH & JEFFERSON,0
36.835808,,-75.971754,5805,ATLANTIC & 7TH,0
36.837038,,-75.972078,5804,ATLANTIC & 9TH,0
36.909968,,-76.305564,0228,HAMPTON & HELENA,0
36.887602,,-76.302471,0221,HAMPTON & 49TH,0
36.891152,,-76.303799,0222,HAMPTON & BOLLING,0
36.894348,,-76.303167,0223,HAMPTON & ROCKBRIDGE,0
36.896522,,-76.302742,0225,HAMPTON & SURRY,0
36.900747,,-76.303389,0226,HAMPTON & LEXAN,0
36.902313,,-76.303863,0227,HAMPTON & ESCADRILLE,0
37.04034,,-76.407599,2239,TODDS & LYNNHAVEN,0
37.036171,,-76.31732,2238,PEMBROKE & OAKCREST,0
37.015954,,-76.332954,2231,BLACK & MCCLELLAN,0
37.021241,,-76.318535,2230,MALLORY & MERCURY,0
36.787431,,-75.998727,9121_merged_9740012,GENERAL BOOTH & DAM NECK,0
37.017782,,-76.332305,2235,MCCLELLAN & HARRIS,0
36.792913,,-76.355885,2234,ROOSEVELT & STRATFORD,0
36.796151,,-76.334706,2237,VICTORY & DEEP CREEK,0
37.022555,,-76.330777,2236,EMANCIPATION & MARSHALL,0
36.782187,,-76.001601,5937,GENERAL BOOTH & HUBBELL,0
36.915108,,-76.241407,0318,CHESAPEAKE & LITTLE CREEK,0
36.917779,,-76.24175,0319,CHESAPEAKE & ELK,0
36.911161,,-76.240764,0315,CHESAPEAKE & ROSEFIELD,0
36.914178,,-76.243515,0317,EVELYN BUTTS & AVENUE J,0
36.891487,,-76.237634,0310,CHESAPEAKE & GREEN,0
36.894766,,-76.238148,0311,CHESAPEAKE & STRAND,0
36.900085,,-76.239018,0312,CHESAPEAKE & DUNDALE,0
36.965287,,-76.27215,5938,OCEAN VIEW & 8TH VIEW,0
36.933144,,-76.205262,0137,OCEAN VIEW & 10TH BAY,0
36.930898,,-76.194882,0132,OCEAN VIEW & 19TH BAY,0
36.931924,,-76.200529,0133,OCEAN VIEW & 14TH BAY,0
36.934275,,-76.209681,0138,OCEAN VIEW & 6TH BAY,0
36.935435,,-76.214086,0139,OCEAN VIEW & 2ND BAY,0
37.027212,,-76.342127,2091,EATON & MILL POINT,0
37.012523,,-76.447892,2090,73RD & WARWICK,0
36.989719,,-76.401077,2092,PARISH & 26TH,0
36.984199,,-76.395792,2525,BLAIR & MULBERRY,0
36.985052,,-76.398307,2524,HAMPTON & 19TH,0
36.986577,,-76.392973,2527,BLAIR & BUXTON,0
36.982253,,-76.406548,2520,ROANOKE & 20TH,0
36.985727,,-76.402161,2523,HAMPTON & OAK,0
36.984565,,-76.404841,2522,HAMPTON & CHESTNUT,0
36.988778,,-76.391175,2528,MAPLE & BLAIR,0
36.977665,,-76.402698,2514,ROANOKE & GARDEN,0
37.151395,,-76.553544,2709,WARWICK & THORNCLIFF,0
36.88923,,-76.23828,0647,SEWELLS POINT & NORVIEW,0
37.1411,,-76.546882,2705,WARWICK & MERCER,0
37.137485,,-76.545636,2704,WARWICK & BEECHMONT,0
37.145245,,-76.549378,2707,WARWICK & CHECED WAY,0
37.143318,,-76.548173,2706,WARWICK & CURTIS TIGNOR,0
37.130765,,-76.539016,2701,WARWICK & ORIANA,0
37.130846,,-76.533634,2700,DENBIGH & DELOICE,0
37.133354,,-76.543053,2703,WARWICK & OLD COURTHOUSE,0
36.878853,,-76.233327,0645,SEWELLS POINT & LITTLE JOHN,0
36.868884,,-76.233401,0642,AZALEA GARDEN & EARLY,0
36.796511,,-76.173416,9173,INDIAN RIVER & KEMPSVILLE,0
37.029391,,-76.423949,6119,MERCURY & SHRECK,0
36.872987,,-76.402178,1825,TOWNE POINT & PEPPERWOOD,0
36.874064,,-76.405568,1824,TOWNE POINT & PINEBARK,0
36.865309,,-76.398998,1827,CHURCHLAND & TOWNPOINT,0
36.866792,,-76.400147,1826,TOWNE POINT & DUNKIRK,0
36.86695,,-76.400085,1820,TOWNE POINT & DUNKIRK,0
36.873754,,-76.409262,1823,TOWNE POINT & MAGNOLIA,0
37.010579,,-76.353378,2147,KECOUGHTAN & CLYDE,0
36.997675,,-76.41607,2410,ROANOKE & 43RD,0
36.994818,,-76.419493,2413,41ST & NEWSOME,0
37.016437,,-76.352982,2144,KECOUGHTAN & SUNSET,0
36.996675,,-76.423719,2415,MARSHALL & 44TH,0
37.020362,,-76.352658,2142,KECOUGHTAN & VICTORIA,0
37.001094,,-76.426407,2417,MARSHALL & TIMBER,0
36.998723,,-76.424989,2416,MARSHALL & 48TH,0
37.003474,,-76.427876,2419,MARSHALL & GLOUCESTER,0
37.009243,,-76.356265,2149,KECOUGHTAN & REGENT,0
36.997605,,-76.418772,2411,44TH & ORCUTT,0
37.051098,,-76.460952,3276,JEFFERSON & GREENWOOD,0
36.797376,,-76.396676,1921,AIRLINE & HOLLEY COVE,0
36.79294,,-76.40203,1922,SUNKIST & AIRLINE,0
36.796536,,-76.397882,1923,AIRLINE & BROOKESHIRE,0
37.058421,,-76.465436,3272,JEFFERSON & HARPERSVILLE,0
36.80586,,-76.379367,1925,AIRLINE & ELMHURST,0
36.806482,,-76.377265,1926,AIRLINE & LANCER,0
37.061432,,-76.46732,3271,JEFFERSON & NEWPORT,0
37.046881,,-76.460057,3279,JEFFERSON & HEMLOCK,0
37.136731,,-76.518407,3319,JEFFERSON & WELLNESS,0
37.123463,,-76.512765,3318,CHATHAM & HABERSHAM,0
36.778276,,-76.329045,9002,GILMERTON & LAKE VILLAGE,0
36.820472,,-76.225752,0764,INDIAN RIVER & SPARROW,0
36.819611,,-76.255711,3311,BETHEL & BERKELY,0
36.819516,,-76.251355,3310,MAYON & WINGFIELD,0
36.812635,,-76.255406,3313,SHELTER & BETHEL,0
36.818329,,-76.256788,3312,BETHEL & DRAYTON,0
36.816018,,-76.251253,3315,BORDER & WINDY,0
36.815902,,-76.250381,3314,BORDER & WINDY,0
37.120306,,-76.508148,3317,HABERSHAM & WALMART,0
36.816756,,-76.215085,0766,MILITARY & INDIAN RIVER,0
36.824387,,-76.31683,1729,LINCOLN & CHARLESTON,0
36.827518,,-76.312653,1726,ELM & DUKE,0
36.824484,,-76.313596,1727,LINCOLN & CAMDEN,0
36.830903,,-76.312824,1725,ELM & SOUTH,0
36.824749,,-76.30434,9399,LINCOLN & 7TH,0
36.822113,,-76.231534,0763,INDIAN RIVER & HAZEL,0
36.84146,,-76.213126,8010_merged_9740004,MILITARY HIGHWAY,0
37.027518,,-76.347302,3004,LINCOLN & FRANKLIN,0
37.043449,,-76.307986,3007,AMHERST & LANSING,0
37.105753,,-76.501116,3006,OYSTER POINT & OPERATIONS,0
37.022168,,-76.317162,3001,MALLORY & TAYLOR,0
37.025564,,-76.333086,3002,SETTLERS LANDING & HAMPTON HARBOR,0
37.054322,,-76.346104,3009,LITTLE BACK RIVER & RIVERCHASE,0
36.809692,,-76.351795,1588,CAVALIER & MCLEAN,0
36.807159,,-76.319346,1582,GEORGE WASHINGTON & GREENWOOD,0
36.79871,,-76.325009,1580,GEORGE WASHINGTON & GARRETT,0
36.818779,,-76.304793,1586,PORTSMOUTH & GREEN,0
36.835237,,-76.298051,1587,HIGH & CRAWFORD,0
36.814536,,-76.31144,1584,GEORGE WASHINGTON & ELM,0
36.855962,,-76.217227,1038,VIRGINIA BEACH & ROUND BAY,0
36.85586,,-76.214528,1039,VIRGINIA BEACH & BRIAR HILL,0
36.852575,,-76.249953,1032,VIRGINIA BEACH & GODFREY,0
36.852781,,-76.248537,1033,VIRGINIA BEACH & BALLENTINE,0
36.852195,,-76.255328,1030,VIRGINIA BEACH & NORCHESTER,0
36.852277,,-76.252978,1031,VIRGINIA BEACH & MERRIMAC,0
36.856252,,-76.22479,1036,VIRGINIA BEACH & JETT,0
36.85609,,-76.220356,1037,VIRGINIA BEACH & PECAN POINT,0
36.853354,,-76.175838,1034,VIRGINIA BEACH & FAIR MEADOWS,0
36.868978,,-76.22751,1212,PRINCESS ANNE & NORCOVA,0
36.774964,,-76.006872,5708_merged_9740005,GENERAL BOOTH & CORPORATE LANDING,0
36.87012,,-76.22539,1211,PRINCESS ANNE & HALSTEAD,0
36.865828,,-76.238296,1216,PRINCESS ANNE & FAIRBANKS,0
36.864787,,-76.240598,1217,PRINCESS ANNE & MINNESOTA,0
36.867255,,-76.23125,1214,PRINCESS ANNE & EARLY,0
36.860961,,-76.248476,1219,PRINCESS ANNE & CROMWELL,0
36.833552,,-76.311095,5659,COUNTY & PHOEBUS,0
36.841275,,-76.310198,5656,CRAWFORD & HATTON,0
36.840409,,-76.312985,5654,ELM & ANN,0
36.841237,,-76.312319,5655,CRAWFORD & WEBSTER,0
36.837846,,-76.312878,5653,ELM & ENTERPRISE,0
36.838118,,-76.313003,5650,ELM & ENTERPRISE,0
37.054283,,-76.34597,2898,LITTLE BACK RIVER & RIVERCHASE,0
37.051081,,-76.347328,2897,KING & MACALVA,0
37.047962,,-76.347648,2896,KING & ROLAND,0
36.850365,,-76.025279,1106,LASKIN & HILLTOP,0
36.816282,,-76.113021,1455,HOLLAND & WINDSOR OAKS,0
36.774327,,-76.007327,1456,GENERAL BOOTH & CULVER,0
36.781206,,-76.001676,1457,GENERAL BOOTH & HUBBELL,0
36.809512,,-76.092954,1450,HOLLAND & DIANA LEE,0
36.8428,,-76.010702,1103,VIRGINIA BEACH & GARCIA,0
36.841867,,-75.994791,1100,VIRGINIA BEACH & BIRCH LAKE,0
36.814298,,-76.101394,1453,HOLLAND & CHIMNEY HILL,0
36.800485,,-76.316688,9421,AFTON & FARRAGUT,0
36.777793,,-76.003926,1458,GENERAL BOOTH & EDISON,0
36.816153,,-76.111282,1459,HOLLAND & WINDSOR OAKS,0
36.848178,,-76.034086,1108,LASKIN & REGENCY,0
36.816116,,-76.331605,5637,PORTSMOUTH & DAHLIA,0
36.842736,,-76.23502,8009_merged_9740021,INGLESIDE ROAD,0
36.815814,,-76.35886,5729,PORTSMOUTH & DELAWARE,0
36.929686,,-76.253067,5722,TIDEWATER & NORMAN,0
36.931995,,-76.253693,5723,TIDEWATER & WOODFORD,0
36.920561,,-76.25299,5720,TIDEWATER & LEONARD,0
36.925148,,-76.252373,5721,TIDEWATER & MARVIN,0
36.92027,,-76.253336,5726,TIDEWATER & LEONARD,0
36.929595,,-76.253326,5724,TIDEWATER &  NORMAN,0
36.924911,,-76.25262,5725,TIDEWATER & MARVIN,0
36.763591,,-76.28885,3913,BAINBRIDGE & YACHT,0
36.765565,,-76.274201,3911,CAMPOSTELLA & KEATS,0
36.765693,,-76.274304,3910,CAMPOSTELLA & EVA,0
36.788377,,-76.135515,0783,LYNNHAVEN & ROUNDHILL,0
36.787351,,-76.145872,0782,LYNNHAVEN & QUARTER,0
36.786476,,-76.150369,0781,LYNNHAVEN & PLEASANT VALLEY,0
36.785343,,-76.156739,0780,LYNNHAVEN & THAMESFORD,0
36.795404,,-76.111233,0787,LYNNHAVEN & RIVERSIDE,0
36.795308,,-76.116679,0786,LYNNHAVEN & WOODBRIDGE,0
36.793573,,-76.118507,0785,LYNNHAVEN & PRINCESS ANNE,0
36.788916,,-76.129022,0784,LYNNHAVEN & GREY FRIARS CHASE,0
36.787376,,-76.101322,0789,TCC VIRGINIA BEACH,0
36.789207,,-76.10769,0788,BUCKNER & RICA,0
37.024524,,-76.423839,5836,WEAVER & MARTHA LEE,0
36.863969,,-76.278728,0412,CHURCH & B,0
37.033803,,-76.321316,5834,PEMBROKE & WOODLAND,0
36.883359,,-76.305084,5835,43RD & BOWDENS FERRY,0
36.870058,,-76.294175,0417,21ST & MANTEO,0
36.868781,,-76.290355,0416,21ST & DEBREE,0
36.86847,,-76.288733,0415,21ST & LLEWELLYN,0
36.868094,,-76.287164,0414,21ST & OMOHUNDRO,0
36.84619,,-76.253188,8008_merged_9740041,BALLENTINE BROAD CREEK STATION,0
36.909461,,-76.081992,5997,SHORE & KLEEN,0
37.037952,,-76.38462,5838,PINE CHAPEL & COLISEUM,0
37.035338,,-76.364222,5839,ARMISTEAD & LASALLE,0
36.907471,,-76.087173,5996,SHORE & PAGE,0
36.881233,,-76.044292,5991,GREAT NECK & HARBOR,0
36.859548,,-76.026378,5990,FIRST COLONIAL & TOTTENHAM,0
36.943332,,-76.312051,0239,HAMMOND & ADMIRAL TAUSSIG,0
36.889343,,-76.05121,5993,GREAT NECK & FALCON,0
36.92341,,-76.316007,0233,HAMPTON & BAKER,0
36.91974,,-76.312245,0231,HAMPTON & STAFF COLLEGE,0
36.915506,,-76.307716,0230,HAMPTON & LITTLE CREEK,0
36.929474,,-76.317649,0235,HAMPTON & BEECHWOOD,0
36.875333,,-76.190254,6086,WESLEYAN & ACADEMY,0
37.115446,,-76.520416,6087,WARWICK & ADAMS WOOD,0
36.790893,,-76.121154,6085,LYNNHAVEN & SALEM CROSSING,0
37.049193,,-76.475239,6083,WARWICK & OLD HARPERSVILLE,0
37.142619,,-76.516067,6080,DENBIGH & CEDARWOOD,0
36.795276,,-76.109967,5902,LYNNHAVEN & INDEPENDENCE,0
36.714576,,-76.251746,5903,CEDAR & HOLT,0
36.827436,,-76.246303,5901,INDIAN RIVER & WINGFIELD,0
36.947925,,-76.307872,5907,GILBERT & BAINBRIDGE,0
36.889236,,-76.239104,0309,CHESAPEAKE & NORVIEW,0
36.886829,,-76.242787,0307,CHESAPEAKE & PAMLICO,0
36.88124,,-76.247232,0304,CHESAPEAKE & BUCKINGHAM,0
36.897547,,-76.238589,0303,CHESAPEAKE & CURIE,0
36.878481,,-76.249529,0302,CHESAPEAKE & ROBINHOOD,0
36.875486,,-76.25247,0300,CHESAPEAKE & CROMWELL,0
36.905767,,-76.178925,0127,SHORE & DIAMOND SPRINGS,0
36.906904,,-76.172561,0126,SHORE & LAKE SMITH,0
36.907361,,-76.170241,0125,SHORE & KIMBALL,0
36.907077,,-76.162429,0124,SHORE & LAKE SHORES,0
36.907174,,-76.155949,0123,SHORE & JACK FROST,0
36.906458,,-76.150441,0122,SHORE & GELA,0
36.894915,,-76.141174,0121,PLEASURE HOUSE & ANDREW JACKSON,0
36.892718,,-76.139921,0120,INDEPENDENCE & SMOKEY,0
36.92087,,-76.192389,0129,SHORE & DUNNING,0
36.905519,,-76.177235,0084,SHORE & DIAMOND SPRINGS,0
36.906618,,-76.172686,0086,SHORE & LAKE SMITH,0
36.981995,,-76.411277,2551,WICKHAM & HAMPTON,0
36.981069,,-76.414011,2552,HAMPTON & MARSHALL,0
36.907103,,-76.169554,0087,SHORE & KIMBALL,0
36.978957,,-76.419418,2554,HAMPTON & JEFFERSON,0
36.85679,,-76.275312,0450,CHAPEL & PRINCESS ANNE,0
36.981351,,-76.42097,2556,JEFFERSON & 25TH,0
36.98538,,-76.435005,2558,WASHINGTON & 37TH,0
36.826328,,-76.299571,2559,PORT CENTRE & LINCOLN,0
36.918122,,-76.191178,0081,JOINT EXP BASE LITTLE CREEK,0
36.91488,,-76.19123,0082,SHORE & FLOWERFIELD,0
36.912544,,-76.189919,0083,SHORE & HEUTTE,0
36.865031,,-76.299475,0433,COLLEY & GRAYDON,0
36.754022,,-76.032832,5010,PRINCESS ANNE & SEABOARD,0
36.754124,,-76.034485,5011,PRINCESS ANNE & SEABOARD,0
36.862115,,-76.299676,0432,COLLEY & RALEIGH,0
36.84088,,-76.135641,5014,COLUMBUS & INDEPENDENCE,0
36.821637,,-76.067137,5016,LYNNHAVEN & SABRE,0
36.882205,,-76.425806,5161,COLLEGE & LAKE VIEW,0
37.041497,,-76.471508,2770,WARWICK & JAMES RIVER,0
37.039646,,-76.469092,2771,WARWICK & RIDGEWAY,0
37.037664,,-76.467498,2772,WARWICK & JAMES RIVER,0
37.034811,,-76.464287,2774,WARWICK & BRANDON,0
37.032351,,-76.460652,2776,WARWICK & MAIN,0
37.029744,,-76.457959,2777,WARWICK & RALEIGH,0
37.015553,,-76.435144,9498,74TH & MARSHALL,0
36.998268,,-76.416632,9499,44TH & ROANOKE,0
36.878176,,-76.294687,0437,COLLEY & 35TH,0
36.879505,,-76.304703,9143,38TH & BLUESTONE,0
36.977646,,-76.418804,2800,JEFFERSON & 20TH,0
36.887452,,-76.307583,9145,49TH & QUARANTINE,0
36.761888,,-76.275805,1858,CAMPOSTELLA & MARCUS,0
36.844006,,-76.278042,8006_merged_9740038,HARBOR PARK STATION,0
36.761778,,-76.27577,1850,CAMPOSTELLA & MARCUS,0
36.772838,,-76.271078,1851,CAMPOSTELLA & WADENA,0
36.77641,,-76.268153,1852,CAMPOSTELLA & LINDALE,0
36.776399,,-76.268309,1855,CAMPOSTELLA & LINDALE,0
36.772395,,-76.271474,1857,CAMPOSTELLA & BURNS,0
36.985227,,-76.413735,2172,26TH & WICKHAM,0
36.984299,,-76.416005,2173,26TH & MARSHALL,0
36.986971,,-76.409333,2170,26TH & ROANOKE,0
36.761646,,-76.250841,3842,BATTLEFIELD & BYRON,0
36.978452,,-76.430666,2176,26TH & WASHINGTON,0
36.980172,,-76.431795,2177,WASHINGTON & 29TH,0
36.982148,,-76.421412,2175,26TH & JEFFERSON,0
36.709987,,-76.266158,3845,CEDAR & MILL LANDING,0
36.982158,,-76.433021,2178,WASHINGTON & 32ND,0
36.98373,,-76.434126,2179,WASHINGTON & 34TH,0
36.820951,,-75.981983,6068,GENERAL BOOTH & AQUARIUM,0
36.975734,,-76.414798,2604,IVY & 16TH,0
36.977377,,-76.416606,2605,IVY & 19TH,0
36.977689,,-76.4187,2606,JEFFERSON & 20TH,0
36.970699,,-76.40923,2600,IVY & 6TH,0
36.841861,,-76.251761,3847,KIMBALL & COURT,0
36.973619,,-76.41245,2602,IVY & 12TH,0
36.98859,,-76.436993,2608,WASHINGTON & 42ND,0
36.841048,,-76.190226,8011_merged_9740024,NEWTOWN ROAD STATION,0
37.091455,,-76.476719,3262,CITY CENTER & TUG BOAT,0
37.083128,,-76.467112,3265,THIMBLE SHOALS & DILIGENCE,0
37.061565,,-76.492012,3264,UNIVERSITY & SHOE,0
37.071095,,-76.473175,3266,JEFFERSON & ROBINSON,0
37.067367,,-76.470974,3269,JEFFERSON & HUBER,0
37.069536,,-76.472293,3268,JEFFERSON & GROOME,0
36.775501,,-76.228135,5126,EDEN & GREENBRIER,0
36.775226,,-76.228255,5127,EDEN & GREENBRIER,0
36.826991,,-76.131852,1429,INDEPENDENCE & EDWIN,0
36.821792,,-76.123747,1428,HOLLAND & COMMUTER,0
36.883954,,-76.245994,0370_merged_9740036,CHESAPEAKE & WAYNE CREEK,0
36.81602,,-76.329099,1739,DEEP CREEK & PORTSMOUTH,0
36.818337,,-76.325832,1738,DEEP CREEK & GRAHAM,0
36.824209,,-76.322823,1733,LINCOLN & EVERGREEN,0
36.823692,,-76.325134,1735,COLUMBUS & DALE,0
36.821206,,-76.325017,1737,COLUMBUS & DALE,0
36.879135,,-76.226238,0946,ROBIN HOOD & AZALEA GARDEN,0
36.790352,,-76.330577,1806,GEORGE WASHINGTON & WINTERGREEN,0
36.787812,,-76.332313,1805,GEORGE WASHINGTON & DELWOOD,0
36.827749,,-76.334609,1595,TURNPIKE & HOWARD,0
36.831433,,-76.331618,1594,ROMANESQUE & MARKHAM,0
36.82066,,-76.346366,1597,TURNPIKE & RODMAN,0
36.826452,,-76.33672,1596,TURNPIKE & FREDERICK,0
36.834503,,-76.334496,1591,HIGH & WATSON,0
36.835028,,-76.336942,1590,FLORIDA & HIGH,0
36.833001,,-76.33173,1593,CUTHERELL & MCKINLEY,0
37.035044,,-76.440987,3077,ORCUTT & FRIENDLY,0
37.05895,,-76.317428,2954,FOX HILL & WOODLAND,0
37.058247,,-76.322531,2955,FOX HILL & BONAIRE,0
37.056485,,-76.328121,2957,FOX HILL & DUNHAM MASSIE,0
36.816957,,-76.35247,1599,TURNPIKE & KINGS,0
36.819252,,-76.348679,1598,TURNPIKE & UTAH,0
37.057735,,-76.306819,2952,FOX HILL & BAXTER,0
37.056647,,-76.311389,2953,FOX HILL & NICKERSON,0
36.852237,,-76.267617,1025,VIRGINIA BEACH & MARSHALL,0
36.851876,,-76.263949,1026,VIRGINIA BEACH & COVENANT,0
36.857649,,-76.284475,1021,VIRGINIA BEACH & SALTER,0
36.773731,,-76.324496,1801,CANAL & MILITARY,0
36.855057,,-76.276478,1023,VIRGINIA BEACH & CHAPEL,0
36.777223,,-76.269488,1800,MILITARY & CANADIAN,0
36.852033,,-76.259189,1028,VIRGINIA BEACH & OAKLAWN,0
36.871561,,-76.222704,1209,PRINCESS ANNE & BEEKMAN,0
36.874242,,-76.217787,1208,PRINCESS ANNE & GABRIEL,0
36.865977,,-76.204906,1205,LOWERY & KEMPSVILLE,0
36.864175,,-76.208031,1204,LOWERY & WALMART,0
36.875091,,-76.212519,1207,PRINCESS ANNE & COWAND,0
36.874363,,-76.2092,1201,PRINCESS ANNE & MILITARY,0
36.864297,,-76.208208,1203,LOWERY & MILITARY,0
36.865888,,-76.205215,1202,LOWERY & KEMPSVILLE,0
36.840543,,-76.313108,5649,ELM & ANN,0
36.947723,,-76.24104,5641,OCEAN VIEW & CHESAPEAKE ST,0
37.043545,,-76.38982,5640,COLISEUM & VON SCHILLING,0
36.799353,,-76.276616,5644,BAINBRIDGE & SWAIN,0
36.797204,,-76.277277,5647,BAINBRIDGE & REDSTART,0
36.760543,,-76.288379,5646,BAINBRIDGE & CARVER,0
36.818249,,-76.11815,3108,HOLLAND & LORD BYRON,0
36.801645,,-76.317645,3109,AFTON & PROSPECT,0
37.128386,,-76.510282,3106,BLAND & JEFFERSON,0
36.913027,,-76.255158,3101,TIDEWATER & STANLEY,0
37.088768,,-76.464333,3103,OMNI & ROCK LANDING,0
36.806032,,-76.090725,1447,HOLLAND & STONESHORE,0
36.808939,,-76.09291,1446,HOLLAND & NORTHWOOD,0
36.812427,,-76.096599,1444,HOLLAND & GARFIELD,0
36.844095,,-76.069514,1115,VIRGINIA BEACH & YORKTOWN,0
36.842952,,-76.066267,1114,VIRGINIA BEACH & MUSTANG,0
36.817524,,-76.117346,1441,HOLLAND & WATERS,0
36.842667,,-76.083503,1116,VIRGINIA BEACH & CRANSTON,0
36.84133,,-76.092631,1119,VIRGINIA BEACH & LITTLE NECK,0
36.841973,,-76.088183,1118,VIRGINIA BEACH & KING RICHARD,0
36.801165,,-76.086569,1449,HOLLAND & GREEN RUN,0
36.802366,,-76.087796,1448,HOLLAND & GREEN RUN,0
36.794806,,-76.400351,5735,AIRLINE & PIERCE,0
36.850202,,-76.209848,5737,MILITARY btwn POPLAR HALL & MALL ENTRANCE,0
36.713227,,-76.254918,5736,CEDAR & ALBEMARLE,0
36.801012,,-76.351027,5731,GREENWOOD & NORMANDY,0
36.815485,,-76.357656,5730,PORTSMOUTH & DELAWARE,0
36.85642,,-76.22446,5733,VIRGINIA BEACH & JETT,0
36.807193,,-76.348026,5732,MCLEAN & COLLEGE,0
36.861413,,-76.027275,5738,FIRST COLONIAL & WILDWOOD,0
36.944896,,-76.279858,9803,BELLINGER & 5TH,0
36.94463,,-76.296354,9802,BELLINGER & FOURTH,0
36.870285,,-76.277721,0286,26TH & GAZEL,0
36.917589,,-76.269771,0965,TAUSSIG & LITTLE CREEK,0
36.756511,,-76.008284,0282,ELSON GREEN & UPTON,0
36.79535,,-76.328815,1564,VICTORY & GEORGE WASHINGTON,0
36.987632,,-76.424841,2304,JEFFERSON & 35TH,0
36.989864,,-76.419679,2306,35TH & MARSHALL,0
37.153138,,-76.531629,5821,JEFFERSON & MEADOW CREEK,0
37.045302,,-76.347843,5820,KING & OLD FOX HILL,0
37.130533,,-76.513952,5823,JEFFERSON & JEFFERSON COMMONS,0
37.134587,,-76.517128,5822,JEFFERSON & TURNBERRY,0
37.103844,,-76.480659,5825,CANON & OLD OYSTER POINT,0
37.131294,,-76.514147,5824,JEFFERSON & JEFFERSON COMMONS,0
37.1211,,-76.509314,5827,HABERSHAM & CHATHAM,0
37.12198,,-76.524067,5826,BLAND & CAMPBELL,0
36.993573,,-76.428374,5829,JEFFERSON & 44TH,0
36.827935,,-76.210336,0935,MILITARY & BROCKMAN,0
36.797857,,-76.233725,0930,MILITARY & OLD GREENBRIER,0
36.800224,,-76.230518,0931,MILITARY & SMITH,0
36.801853,,-76.228265,0932,MILITARY & PARAMONT,0
36.805816,,-76.222916,0933,MILITARY & LOCKARD,0
36.71173,,-76.276766,3857,CEDAR & COUNTRY CLUB,0
36.810593,,-76.202215,3854,INDIAN RIVER & LEVEL GREEN,0
36.809545,,-76.200174,3855,INDIAN RIVER & REON,0
36.943923,,-76.258079,3852,TIDEWATER & LORENGO,0
36.941707,,-76.25615,3853,TIDEWATER & LEICESTER,0
36.967259,,-76.284303,3850,OCEAN VIEW & 12TH VIEW,0
36.961441,,-76.263872,3851,OCEAN VIEW & 5TH VIEW,0
36.863981,,-76.27902,0448,CHURCH & 18TH,0
36.855462,,-76.248742,0997,BALLENTINE & HOLLISTER,0
36.862582,,-76.244988,0994,PRINCESS ANNE & INGLESIDE,0
36.799809,,-76.364465,1566,GREENWOOD & CLAY,0
36.863686,,-76.294225,0755,COLONIAL & PRINCESS ANNE,0
37.042969,,-76.314786,5840,GRIMES & BANCROFT,0
36.912632,,-76.066581,6099,SHORE & BEECH,0
37.138321,,-76.512675,6091,PATRICK HENRY & TURNBERRY,0
37.140082,,-76.515706,6090,PATRICK HENRY & DAYBREAK,0
37.140732,,-76.51775,6093,DENBIGH & PATRICK HENRY,0
37.135781,,-76.515873,6092,TURNBERRY & JEFFERSON,0
36.918698,,-76.052435,6095,FIRST LANDING,0
36.846506,,-76.28938,6094,BANK & PLUME,0
36.906217,,-75.993271,6097,ATLANTIC & 81st,0
36.855866,,-76.233062,0688,VIRGINIA BEACH & AZALEA GARDEN,0
36.855264,,-76.236557,0689,VIRGINIA BEACH & KINGWOOD,0
36.878861,,-76.233456,0682,SEWELLS POINT & LITTLE JOHN,0
36.875292,,-76.232844,0683,SEWELLS POINT & WOOLSEY,0
36.88392,,-76.234749,0680,SEWELLS POINT & WINDERMERE,0
36.880916,,-76.233797,0681,SEWELLS POINT & KENNEBECK,0
36.861173,,-76.233783,0686,AZALEA GARDEN & VILLAGE,0
36.869114,,-76.233432,0684,AZALEA GARDEN & EARLY,0
36.866059,,-76.235287,0685,AZALEA GARDEN & PRINCESS ANNE,0
37.042699,,-76.29345,5919,MALLORY & BUCKROE,0
37.042696,,-76.293576,5918,MALLORY & BUCKROE,0
36.868857,,-76.031457,5915,FIRST COLONIAL & MILL DAM,0
36.878229,,-76.041857,5914,GREAT NECK & POPLAR POINT,0
36.878254,,-76.041569,5917,GREAT NECK & MILL DAM,0
36.86939,,-76.032527,5916,FIRST COLONIAL & MILL DAM,0
36.875467,,-76.039686,5911,GREAT NECK & FIRST COLONIAL,0
36.871526,,-76.035978,5912,FIRST COLONIAL & PARAMORE,0
36.855842,,-76.134337,0112,INDEPENDENCE & CONSTITUTION,0
36.85814,,-76.133317,0113,INDEPENDENCE & HESSIAN,0
36.846752,,-76.136524,0110,INDEPENDENCE & BROAD,0
36.852394,,-76.136055,0111,INDEPENDENCE & HINSDALE,0
36.874251,,-76.134388,0116,INDEPENDENCE & WISHART,0
36.880604,,-76.132937,0117,INDEPENDENCE & WAKEFIELD,0
36.86338,,-76.131912,0114,INDEPENDENCE & PEMBROKE,0
36.868447,,-76.132843,0115,INDEPENDENCE & WITCHDUCK,0
36.888059,,-76.136686,0118,INDEPENDENCE & FIVE FORKS,0
36.984846,,-76.40464,2543,HAMPTON & CHESTNUT,0
36.985889,,-76.402012,2542,HAMPTON & OAK,0
36.98518,,-76.399073,2540,HAMPTON & 19TH,0
36.982422,,-76.406783,2545,ROANOKE & 20TH,0
36.849728,,-76.028558,1107,LASKIN & VICTOR,0
36.979469,,-76.409713,2549,WICKHAM & 18TH,0
36.97832,,-76.408933,2548,16TH & WICKHAM,0
37.033224,,-76.391938,2381,POWER PLANT & PINE CHAPEL,0
36.983835,,-76.422633,2380,JEFFERSON & 29TH,0
36.859771,,-76.296153,0756,COLONIAL & BOISSEVAIN,0
36.872838,,-76.290168,0757,COLONIAL & 26TH,0
36.875436,,-76.289121,0750,COLONIAL & 30TH,0
36.873036,,-76.290197,0751,COLONIAL & 26TH,0
36.868644,,-76.292144,0753,COLONIAL & 21ST,0
36.842752,,-76.006666,1102,VIRGINIA BEACH & DOZIER,0
36.831243,,-76.259198,0758,INDIAN RIVER & OAKWOOD,0
36.894549,,-76.239449,0759,SEWELLS POINT & STRAND,0
36.865907,,-76.301026,0208,HAMPTON & GRAYDON,0
36.866635,,-76.300449,0209,HAMPTON & PRINCESS ANNE,0
36.805985,,-76.090228,5003,HOLLAND & STONESHORE,0
36.945847,,-76.3244,8866,MORRIS & VIRGINIA,0
37.044566,,-76.473707,2768,WARWICK & NELSON,0
36.841668,,-76.131043,5006,CONSTITUTION & COLUMBUS,0
36.793161,,-76.081,5005,HOLLAND & SHIPPS CORNER,0
36.945589,,-76.322501,8867,VIRGINIA & MORRIS,0
37.055654,,-76.481672,2763,WARWICK & MATTHEW,0
37.157482,,-76.535039,2762,JEFFERSON & KINGS RIDGE,0
36.788127,,-76.102034,5009,BUCKNER & CANADIAN,0
37.067685,,-76.492736,2760,WARWICK & PRINCE DREW,0
37.046862,,-76.473701,2767,WARWICK & LOGAN,0
36.884765,,-76.31253,9158,POWHATAN & 46TH,0
37.051844,,-76.478085,2765,WARWICK & COPELAND,0
36.856319,,-76.134556,0103,INDEPENDENCE & JERICHO,0
36.863657,,-76.132309,0102,INDEPENDENCE & PEMBROKE,0
36.757119,,-76.280327,1849,LIBERTYVILLE & CHANNEL,0
36.757222,,-76.284143,1848,LIBERTYVILLE & WINDWARD,0
36.791632,,-76.279688,1843,BAINBRIDGE & HILL,0
36.795526,,-76.278125,1842,BAINBRIDGE & ROWLAND,0
36.797043,,-76.277491,1841,BAINBRIDGE & HARVARD,0
36.804473,,-76.276258,1840,BAINBRIDGE & BEECH,0
36.780489,,-76.284142,1847,BAINBRIDGE & YAGER,0
36.785769,,-76.282052,1846,BAINBRIDGE & BURROW,0
36.788179,,-76.281094,1845,BAINBRIDGE & GODWIN,0
36.789833,,-76.280414,1844,BAINBRIDGE & ROSEMONT,0
36.988058,,-76.406692,2169,26TH & CHESTNUT,0
36.988936,,-76.404479,2168,26TH & OAK,0
36.814568,,-76.069135,6071,LYNNHAVEN MALL,0
36.868073,,-76.418881,9551,CITY LINE SUFFOLK (NP),0
36.994792,,-76.393022,2164,KECOUGHTAN & PEAR,0
36.990603,,-76.39796,2167,25TH & BUXTON,0
36.992395,,-76.395856,2166,25TH & MAPLE,0
36.999508,,-76.385016,2161,KECOUGHTAN & CLIFTON,0
37.000901,,-76.381925,2160,KECOUGHTAN & ROBINSON,0
36.799236,,-76.178743,6079,INDIAN RIVER & KEMPS RIVER,0
36.799452,,-76.178612,6078,INDIAN RIVER & KEMPS RIVER,0
37.001605,,-76.440227,2617,WARWICK & 60TH,0
36.998473,,-76.43827,2615,WARWICK & 55TH,0
36.995979,,-76.43674,2613,WARWICK & 51ST,0
36.993962,,-76.437441,2612,49TH & HUNTINGTON,0
36.992832,,-76.439627,2611,WASHINGTON & 49TH,0
36.991111,,-76.438548,2610,WASHINGTON & 46TH,0
37.006124,,-76.442999,2619,WARWICK & 66TH,0
37.003575,,-76.441424,2618,WARWICK & 63RD,0
37.000152,,-76.432853,3298,JEFFERSON & PENINSULA,0
36.99682,,-76.430776,3299,JEFFERSON & 49TH,0
37.008911,,-76.43827,3294,JEFFERSON & HILTON,0
37.005837,,-76.436342,3295,JEFFERSON & BRIARFIELD,0
37.002702,,-76.43442,3296,JEFFERSON & 58TH,0
36.797464,,-76.396319,1905,AIRLINE & MAPLEFIELD,0
37.022633,,-76.446789,3290,JEFFERSON & MORRIS,0
36.947112,,-76.301146,5132,FRANKLIN & 2ND,0
36.947208,,-76.301129,5131,FRANKLIN & SECOND,0
36.779701,,-76.224635,5130,GREENBRIER MALL,0
36.874137,,-76.295026,0435,COLLEY & 26TH,0
36.84146,,-76.213126,8010_merged_9740025,MILITARY HIGHWAY STATION,0
37.067597,,-76.42536,3063,THOMAS NELSON & BATTLE,0
36.776937,,-76.269517,1798,MILITARY & CANADIAN,0
37.057658,,-76.427846,3066,BIG BETHEL & MICHAELS WOODS,0
37.056055,,-76.300825,2949,OLD BUCKROE & RANALET,0
37.068949,,-76.426202,3064,THOMAS NELSON & BIG BETHEL,0
37.050974,,-76.30322,2947,ANDREWS & FRANKTOWN,0
37.049379,,-76.42932,3069,BIG BETHEL & LIBERTY,0
37.053368,,-76.428681,3068,BIG BETHEL & BURTON,0
37.042073,,-76.3068,2942,SKYLAND & AMHERST,0
37.041623,,-76.303931,2940,OLD BUCKROE & RICHARD,0
36.848794,,-76.16457,1050,VIRGINIA BEACH & CLEARFIELD,0
36.869029,,-76.300657,0211,HAMPTON & SPOTSWOOD,0
36.847461,,-76.161247,1052,VIRGINIA BEACH & NORTHRIDGE,0
36.846163,,-76.158171,1053,VIRGINIA BEACH & WITCHDUCK,0
36.843607,,-76.150133,1055,VIRGINIA BEACH & OPAL,0
36.843524,,-76.146599,1056,VIRGINIA BEACH & ARAGONA,0
36.843479,,-76.143388,1057,VIRGINIA BEACH & HORACE,0
36.843436,,-76.140363,1058,VIRGINIA BEACH & FIRST,0
36.84323,,-76.12836,1059,VIRGINIA BEACH & BEASLEY,0
36.8344,,-76.343721,1696,HIGH & CUMBERLAND,0
36.835802,,-76.34759,1697,HIGH & RODMAN,0
36.834838,,-76.324326,1694,HIGH & JAMESTOWN,0
36.834467,,-76.340448,1695,HIGH & POTOMAC,0
36.835187,,-76.302106,1692,HIGH & DINWIDDIE,0
36.834909,,-76.321195,1693,HIGH & WILLIAMSBURG,0
36.835051,,-76.308148,1690,HIGH & CHESTNUT,0
36.834994,,-76.312047,1691,HIGH & ELM,0
36.882344,,-76.289751,0743,NEWPORT & VIRGINIA,0
36.83744,,-76.35022,1698,HIGH & WILLETT,0
36.840202,,-76.355552,1699,HIGH & GRAYSON,0
36.866146,,-75.981281,1278,PACIFIC & 38TH,0
36.864046,,-75.980736,1279,PACIFIC & 36TH,0
36.886507,,-75.987376,1270,ATLANTIC & 61ST,0
36.883122,,-75.986301,1271,ATLANTIC & 57TH,0
36.878537,,-75.984914,1272,ATLANTIC & 51ST,0
36.87405,,-75.983496,1273,ATLANTIC & 46TH,0
36.871352,,-75.982815,1275,ATLANTIC & 43RD,0
36.904342,,-76.242831,0660,SEWELLS POINT & KITTREL,0
36.882322,,-76.302142,0218,HAMPTON & 41ST,0
36.802561,,-76.185483,3333,INDIAN RIVER & CENTERVILLE,0
36.862431,,-76.286122,0191,MONTICELLO & 15TH,0
36.799682,,-76.361657,3119,GREENWOOD & LANGLEY,0
36.799424,,-76.370157,3118,DARREN & GREENWOOD,0
36.795848,,-76.339501,3117,VICTORY & BEECHDALE,0
36.79243,,-76.348792,3116,AVONDALE & GLENWOOD,0
36.791847,,-76.35229,3115,AVONDALE & RIDDICK,0
36.791778,,-76.352792,3114,AVONDALE & RIDDICK,0
36.79703,,-76.367611,3113,HORNE & STAUFFER,0
36.828474,,-76.067164,3331,LYNNHAVEN & VIKING,0
36.792867,,-76.35722,3111,ROOSEVELT & WELK,0
36.792546,,-76.348717,3110,AVONDALE & GLENWOOD,0
37.192466,,-76.575179,3330,ELMHURST & WARWICK,0
36.878137,,-76.288708,0748,35TH & COLONIAL,0
36.910003,,-76.067928,1304,GREAT NECK & WILLOW OAK,0
36.849518,,-76.179461,1305,NEWTOWN & LARRY,0
36.851283,,-76.178555,1307,NEWTOWN & ELAM,0
36.849448,,-76.19132,1301,KEMPSVILLE & KEMPSVILLE CIR,0
36.853514,,-76.192889,1302,KEMPSVILLE & WELLVILLE,0
36.910232,,-76.067593,1303,GREAT NECK & WILLOW OAK,0
36.849812,,-76.179601,1308,NEWTOWN & ETHAN ALLEN,0
36.843644,,-76.185317,1309,NEWTOWN & GREENWICH,0
36.847222,,-76.252613,5740,BALLENTINE & LRT STATION,0
36.841281,,-76.189664,5741,NEWTOWN RD STATION,0
36.860987,,-76.271476,5742,TIDEWATER & GORDON,0
36.894936,,-76.256986,5743,TIDEWATER & WAUKESHA,0
36.859154,,-76.304294,5744,FORT NORFOLK STATION,0
36.823964,,-76.264468,5745,BERKLEY & QUAIL,0
36.831919,,-75.971442,5749,ATLANTIC & 3RD,0
36.809378,,-76.264434,0929,ATLANTIC & POCAHONTAS,0
36.8829,,-76.281847,0928,GRANBY & DELAWARE,0
36.945716,,-76.259301,0927,GRANBY & SLOANE,0
36.865266,,-76.299556,0430,COLLEY & GRAYDON,0
36.799809,,-76.231531,0925,MILITARY & SMITH,0
36.802227,,-76.228241,0924,MILITARY & PARAMONT,0
36.805695,,-76.223494,0923,MILITARY & ENGLE,0
36.808654,,-76.219827,0922,MILITARY & AUBURN,0
36.820987,,-76.212452,0921,MILITARY & BULLIS,0
36.828019,,-76.210713,0920,MILITARY & BROCKMAN,0
37.038212,,-76.441093,5692,ORCUTT & SHARPLEY,0
36.846032,,-75.985456,5693,PARKS & 19TH,0
36.822263,,-76.303301,5691,8TH & JEFFERSON,0
36.873925,,-76.408553,5696,TOWNE POINT & RED BARN,0
36.809854,,-76.352007,5697,VICTORY CROSSING,0
36.846365,,-75.985753,5694,PARKS & 20TH,0
36.716749,,-76.28364,3846,CEDAR & ROUNTREE,0
36.910276,,-76.255906,3849,TIDEWATER & EASY,0
36.944351,,-76.257946,3848,TIDEWATER & GILPIN,0
36.794484,,-76.238735,5698,MILITARY & PARKVIEW,0
36.794328,,-76.238483,5699,MILITARY & PARKVIEW,0
36.967227,,-76.289077,0695,OCEAN VIEW & RICHVIEW,0
36.967207,,-76.293526,0696,OCEAN VIEW & 15TH VIEW,0
36.849903,,-76.238027,0691,GATLING & WAKEFIELD,0
36.854452,,-76.240707,0690,VIRGINIA BEACH & INGLESIDE,0
36.967227,,-76.281479,0693,OCEAN VIEW & 11TH VIEW,0
36.851846,,-76.24785,0692,BALLENTINE & CONNECTOR,0
36.842816,,-76.257656,0699,KIMBALL & MAJESTIC,0
36.847201,,-76.290229,8004_merged_9740043,MACARTHUR SQUARE STATION,0
36.930057,,-76.243668,0324,CHESAPEAKE & FISHERMANS,0
36.933373,,-76.244189,0326,CHESAPEAKE & BAYVIEW,0
36.926403,,-76.243076,0323,CHESAPEAKE & FRANK,0
36.923786,,-76.242673,0322,CHESAPEAKE & SHEPPARD,0
36.937457,,-76.244804,0328,CHESAPEAKE & DUNE,0
36.803945,,-76.385659,5960,AIRLINE & BEDFORD,0
36.825749,,-76.260638,5961,CAMPOSTELLA & GREENLEAF,0
36.710413,,-76.270512,5962,CEDAR & WATERS,0
36.766743,,-76.251733,5963,BATTLEFIELD & COASTAL,0
36.749964,,-76.246301,5964,BATTLEFIELD & KNELLS RIDGE,0
36.710578,,-76.270256,5965,CEDAR & WATERS,0
37.022616,,-76.43466,5966,ORCUTT & 82ND,0
36.859109,,-76.24953,2288,BALLENTINE & PRINCESS ANNE,0
37.025152,,-76.32511,2289,WOODLAND & OLD BUCKROE,0
36.790502,,-76.23528,0197,WOODLAKE & OLD GREENBRIAR,0
36.756522,,-76.008031,0109,ELSON GREEN & UPTON,0
36.76145,,-76.006788,0108,NIMMO & UPTON,0
36.848902,,-76.136888,0105,INDEPENDENCE & JEANNE,0
36.851439,,-76.136786,0104,INDEPENDENCE & HINSDALE,0
37.050089,,-76.396225,2282,MARCELLA & HARTFORD,0
37.04949,,-76.391639,2283,COLISEUM & MARCELLA,0
36.810685,,-76.364235,2284,AIRLINE & CHOWAN,0
37.276369,,-76.708294,2285,BOUNDARY & ARMISTEAD,0
36.870198,,-76.291497,2286,COLONIAL & 22ND,0
36.87013,,-76.291257,2287,COLONIAL & 22ND,0
37.026562,,-76.404927,2578,ABERDEEN & RUSSELL,0
37.021754,,-76.404221,2576,ABERDEEN & WINGFIELD,0
37.018487,,-76.406345,2574,BRIARFIELD & ABERDEEN,0
37.019836,,-76.403949,2575,ABERDEEN & BRIARFIELD,0
37.017339,,-76.411037,2572,BRIARFIELD & E,0
37.014289,,-76.414802,2570,BRIARFIELD & WARREN,0
36.878491,,-76.290509,0747,NEWPORT & 35TH,0
36.879637,,-76.290609,0745,NEWPORT & 37TH,0
36.880862,,-76.290266,0744,NEWPORT & GEORGIA,0
36.986015,,-76.423978,2378,JEFFERSON & 32ND,0
36.877077,,-76.301918,0214,HAMPTON & 27TH,0
36.883821,,-76.289249,0741,NEWPORT & PENNSYLVANIA,0
36.878857,,-76.302017,0216,HAMPTON & 37TH,0
36.990058,,-76.419554,2374,35TH & MARSHALL,0
36.989636,,-76.422635,2375,36TH & MADISON,0
36.988586,,-76.425265,2376,36TH & JEFFERSON,0
36.993658,,-76.41063,2370,35TH & CHESTNUT,0
36.992688,,-76.412939,2371,35TH & ROANOKE,0
36.991165,,-76.416887,2373,35TH & WICKHAM,0
36.855679,,-76.025055,5038,FIRST COLONIAL & WOLFSNARE,0
36.760281,,-76.005595,9127,UPTON & NIMMO,0
36.900175,,-76.065622,5030,GREAT NECK & ADAM KEELING,0
36.815818,,-76.336574,1877,PORTSMOUTH & ROYAL,0
36.816794,,-76.276881,1874,POINDEXTER & STEWART,0
36.818152,,-76.273885,1875,POINDEXTER & JACKSON,0
36.813969,,-76.278347,1872,BAINBRIDGE & JEFFERSON,0
36.806342,,-76.276609,1870,BAINBRIDGE & HUGHES,0
36.808012,,-76.277068,1871,BAINBRIDGE & WILBUR,0
37.032026,,-76.403784,2118,WEAVER & LANGSTON,0
37.033515,,-76.400869,2119,WEAVER & CALVARY,0
37.023521,,-76.425785,2110,79TH & MERRIMAC,0
37.024824,,-76.423052,2111,WEAVER & MARTHA LEE,0
37.027016,,-76.418812,2113,WEAVER & BIG BETHEL,0
37.029239,,-76.414339,2114,WEAVER & WOODBURY FOREST,0
37.031148,,-76.410547,2116,WEAVER & TWIN OAKS,0
37.031615,,-76.408156,2117,WEAVER & MARY PEAKE,0
37.012819,,-76.447264,2622,WARWICK & 73RD,0
36.866572,,-76.284675,0413,20TH & GRANBY,0
36.939381,,-76.225573,0141,OCEAN VIEW & GROVE,0
37.011199,,-76.446198,2621,WARWICK & 71ST,0
37.022153,,-76.452856,2624,WARWICK & LAFAYETTE,0
37.091314,,-76.38713,5837,COMMANDER SHEPPARD & RESEARCH,0
37.028569,,-76.456883,2628,WARWICK & RIVERMONT,0
37.030803,,-76.458194,2629,WARWICK & HOPKINS,0
36.805079,,-76.382484,1919,AIRLINE & ELMHURST,0
36.806622,,-76.377216,1918,AIRLINE & LANCER,0
36.859581,,-76.27601,0410,GOFF & OKEEFE,0
37.025803,,-76.448748,3288,JEFFERSON & WILCOX,0
36.878857,,-76.302137,1911,HAMPTON & 38TH,0
37.132776,,-76.530785,5832,DENBIGH & POCAHONTAS,0
36.848599,,-76.210293,1913,MILITARY & POPLAR HALL,0
37.033008,,-76.453228,3284,JEFFERSON & BELLWOOD,0
36.810779,,-76.364498,1915,AIRLINE & CHOWAN,0
37.035694,,-76.454855,3282,JEFFERSON & HUDSON,0
36.808308,,-76.371539,1917,AIRLINE & KINGS GRANT,0
37.044422,,-76.459722,3280,JEFFERSON & MCLAWHORNE,0
37.025818,,-76.385864,5830,QUEEN & POWER PLANT,0
37.004671,,-76.374565,2024,KECOUGHTAN & OCANOE,0
37.005694,,-76.372623,2025,KECOUGHTAN & RALEIGH,0
37.077351,,-76.495466,2754,WARWICK & WELLESLEY,0
37.000981,,-76.38153,2020,KECOUGHTAN & ROBINSON,0
37.002559,,-76.378655,2021,KECOUGHTAN & CHESTERFIELD,0
37.085703,,-76.497692,2750,NETTLES & WARWICK,0
37.094935,,-76.46852,0823,CITY CENTER & ROCK LANDING,0
37.007667,,-76.365221,2028,KECOUGHTAN & ALGONQUIN,0
36.810943,,-76.198768,0820,INDIAN RIVER P&R LOT,0
37.166166,,-76.541862,2759,JEFFERSON & MASON,0
37.019788,,-76.451464,2623,WARWICK & UNION,0
36.815484,,-76.342929,5217,PORTSMOUTH & IVEY,0
36.846227,,-76.27028,0825,BRAMBLETON & PARK,0
37.024643,,-76.454469,2625,WARWICK & NORTH,0
36.81772,,-76.267416,0474_merged_9740006,LIBERTY & TRANSYLVANIA,0
37.063406,,-76.427093,3058,BIG BETHEL & TOWN CENTER,0
37.071797,,-76.426689,3059,BIG BETHEL & PARK,0
37.052328,,-76.428643,3056,BIG BETHEL & BURTON,0
37.033611,,-76.321303,2973,PEMBROKE & WOODLAND,0
37.045465,,-76.348119,2970,KING & THORNROSE,0
37.040649,,-76.307812,2971,SKYLAND & PEMBROKE,0
37.038255,,-76.314269,2976,GRIMES & PEMBROKE,0
37.040634,,-76.314257,2977,GRIMES & KENSINGTON,0
37.04298,,-76.43575,3050,TODDS & WARNER,0
37.036212,,-76.317041,2975,PEMBROKE & OAKCREST,0
36.854907,,-76.191685,1043,VIRGINIA BEACH & WINBURNE,0
36.855033,,-76.194367,1042,VIRGINIA BEACH & KEMPSVILLE,0
36.854489,,-76.202824,1040,GLENROCK & VIRGINIA BEACH,0
36.854233,,-76.177952,1046,VIRGINIA BEACH & NEWTOWN,0
36.854711,,-76.187139,1044,VIRGINIA BEACH & GEORGE,0
36.850415,,-76.168608,1049,VIRGINIA BEACH & TOY,0
36.851979,,-76.172452,1048,VIRGINIA BEACH & DAVIS,0
36.843254,,-76.248786,3027,KIMBALL & KIMBALL,0
36.835157,,-76.303224,1685,HIGH & WASHINGTON,0
36.835244,,-76.307375,1687,HIGH & EFFINGHAM,0
36.835029,,-76.316907,1686,HIGH & TWINE,0
36.842737,,-76.245687,3025,KIMBALL & WILEY,0
36.892742,,-75.989353,1268,ATLANTIC & 68TH,0
36.850518,,-76.25503,3023,CORPREW & NORCHESTER,0
36.906807,,-75.993055,1264,ATLANTIC & 82ND,0
37.027922,,-76.450044,3287,JEFFERSON & CENTER,0
36.85663,,-76.303749,1242,WOODIS & COLLEY,0
37.178468,,-76.575615,3021,ENTERPRISE & WARWICK,0
37.031173,,-76.451656,3286,JEFFERSON & RANDOLPH,0
37.176368,,-76.578089,3020,ENTERPRISE & SAUDER,0
37.030269,,-76.451541,3285,JEFFERSON & RANDOLPH,0
36.848135,,-76.186697,3128,NORTH CENTER & KEMPSVILLE,0
36.859367,,-76.250783,1912,PRINCESS ANNE & VINCENT,0
36.799936,,-76.361513,3122,GREENWOOD & VIKING,0
36.800046,,-76.364661,3123,GREENWOOD & CLAY,0
36.799907,,-76.356295,3121,GREENWOOD & STRATFORD,0
36.781803,,-76.335348,3126,GEORGE WASHINGTON & GILMERTON,0
36.796038,,-76.341184,3127,VICTORY & KENT,0
36.811105,,-76.352355,1914,MCLEAN & BELMONT,0
37.040647,,-76.457949,3281,JEFFERSON & FRANCISCO,0
36.80884,,-76.369926,1916,AIRLINE & CITY PARK,0
36.862541,,-76.17741,1317,BAKER & HAMPSHIRE,0
36.86042,,-76.175875,1316,BAKER & NEWTOWN,0
36.842633,,-76.006405,1313,VIRGINIA BEACH & DOZIER,0
36.843374,,-76.189262,1310,KEMPSVILLE & BANGOR,0
36.873362,,-76.187177,1319,WESLEYAN & COLLEGE,0
36.865355,,-76.179161,1318,BAKER & WEBLIN,0
36.837029,,-76.317311,5753,LONDON & PENINSULA,0
36.862171,,-76.246218,5752,PRINCESS ANNE & INGLESIDE,0
36.947819,,-76.243763,5751,CHESAPEAKE & MODOC,0
36.946136,,-76.244182,5750,CHESAPEAKE & BALVIEW,0
36.789965,,-76.092635,5757,BUCKNER & CROFTS PRIDE,0
36.790045,,-76.092766,5756,BUCKNER & CROFTS PRIDE,0
36.837082,,-76.318711,5754,LONDON & PENINSULA,0
36.826179,,-76.267722,5759,WILSON & MANSON,0
36.790161,,-76.090952,5758,BUCKNER & PUREBRED,0
37.032359,,-76.418046,6120,MERCURY & PENNWOOD,0
37.171429,,-76.546115,2756,JEFFERSON & WOODCREEK,0
36.84891,,-76.208283,0918,POPLAR HALL & MILITARY,0
36.836091,,-76.21067,0919,MILITARY & CORPORATE,0
36.853969,,-76.280007,0452,CHURCH & OLNEY,0
37.070748,,-76.493175,2757,WARWICK & GLENDALE,0
36.865449,,-76.21085,0913,MILITARY & LOWERY,0
36.876312,,-76.210855,0911,MILITARY & ELIZABETH,0
36.85227,,-76.203265,0916,MILITARY CIRCLE MALL,0
37.007139,,-76.369949,2026,KECOUGHTAN & HAMPTON ROADS,0
36.859361,,-76.20664,0914,JANAF SHOPPING CENTER,0
37.080914,,-76.497636,2752,WARWICK & CULPEPPER,0
36.855523,,-76.206873,2753,VIRGINIA BEACH & MILITARY,0
36.886576,,-76.288074,0737,NEWPORT & CONNECTICUT,0
37.083214,,-76.498169,2751,WARWICK & TURLINGTON,0
36.879414,,-76.290476,0732,NEWPORT & 37TH,0
36.880645,,-76.290136,0733,NEWPORT & GEORGIA,0
36.919663,,-76.242411,0351,CHESAPEAKE & BURKSDALE,0
36.917705,,-76.242124,0352,CHESAPEAKE & BRENTWOOD,0
36.915022,,-76.241663,0353,CHESAPEAKE & LITTLE CREEK,0
36.91417,,-76.243632,0354,EVELYN BUTTS & AVENUE J,0
36.912666,,-76.241292,0355,CHESAPEAKE & AVE I,0
36.907448,,-76.240434,0357,CHESAPEAKE & JOHNSTONS,0
36.905194,,-76.240054,0359,CHESAPEAKE & KITRELL,0
36.872446,,-76.265556,0597,TIDEWATER & SHOOP,0
36.877133,,-76.263806,0594,TIDEWATER & LAFAYETTE,0
36.876107,,-76.264202,0595,TIDEWATER & BELLEVUE,0
36.88128,,-76.262192,0593,TIDEWATER & COLUMBIA,0
36.887821,,-76.259783,0590,TIDEWATER & WILLOWWOOD,0
36.885471,,-76.260609,0591,TIDEWATER & BAPAUME,0
36.825955,,-76.312534,5973,ELM & RANDOLPH,0
36.806322,,-76.335832,5972,GREENWOOD & INDEPENDENCE,0
36.844515,,-76.248274,5971,WESTMINSTER & CHICK,0
36.944413,,-76.300359,5970,BELLINGER & 2ND,0
37.064052,,-76.468922,3270,JEFFERSON & LANGLEY,0
36.855479,,-76.248874,5974,BALLENTINE & HOLLISTER,0
36.897906,,-76.279887,0178,GRANBY & KINGSLEY,0
37.036035,,-76.300507,2299,MALLORY & RUST,0
37.034302,,-76.303169,2298,MALLORY & DARBY,0
36.91269,,-76.273695,0170,GRANBY & NORTH SHORE,0
36.909298,,-76.275165,0171,GRANBY & WARREN,0
36.906499,,-76.276376,0173,GRANBY & THOLE,0
37.032656,,-76.305637,2297,MALLORY & SARGEANT,0
36.903011,,-76.27788,0175,GRANBY & OAK GROVE,0
37.030481,,-76.308968,2295,MALLORY & BERKLEY,0
36.900024,,-76.279178,0177,GRANBY & WHITING,0
37.012358,,-76.419819,2568,BRIARFIELD & OLD CHESTNUT,0
36.993366,,-76.425016,2560,MADISON & 42ND,0
36.995933,,-76.42662,2562,MADISON & 46TH,0
37.009464,,-76.426532,2565,BRIARFIELD & ORCUTT,0
37.011355,,-76.421814,2567,BRIARFIELD & CHESTNUT,0
37.01034,,-76.424359,2566,BRIARFIELD & ROANOKE,0
36.800958,,-76.182255,0773,INDIAN RIVER & THOMPKINS,0
36.88567,,-76.235801,0771,SEWELLS POINT & BANKHEAD,0
36.79646,,-76.17384,0776,INDIAN RIVER & KEMPSVILLE,0
36.892677,,-76.238853,0774,SEWELLS POINT & GREENWOOD,0
36.996208,,-76.407552,2368,35TH & ACORN,0
36.997523,,-76.406119,2367,SHELL & PARRISH,0
36.79282,,-76.163895,0778,INDIAN LAKES & HALIFAX,0
37.001857,,-76.402242,2364,PEMBROKE & ABERDEEN,0
37.00481,,-76.397686,2363,PEMBROKE & CHILDS,0
37.006388,,-76.3952,2362,PEMBROKE & PLUM,0
37.008488,,-76.391698,2361,G & PEMBROKE,0
36.899838,,-76.065825,5029,GREAT NECK & ADAM KEELING,0
36.846452,,-76.285932,0006,SAINT PAULS & PLUME,0
36.823036,,-76.297623,2584,PORT CENTRE & EDWARDS,0
37.039089,,-76.40979,2583,ABERDEEN & TODDS,0
37.035687,,-76.408205,2582,ABERDEEN & MERCURY,0
37.032681,,-76.405841,2581,ABERDEEN & WEAVER,0
36.851549,,-76.285418,0003,SAINT PAULS & CHARLOTTE,0
36.82031,,-76.066862,5020,LYNNHAVEN & AVENGER,0
36.844625,,-76.289578,0008,WATERSIDE & COMMERCIAL,0
36.763958,,-76.288768,1861,BAINBRIDGE & OUTLAW,0
36.757233,,-76.280663,1860,LIBERTYVILLE & CHANNEL,0
36.772953,,-76.286954,1863,BAINBRIDGE & MCCLOUD,0
36.769978,,-76.288169,1862,BAINBRIDGE & GREAT BRIDGE,0
36.785962,,-76.281818,1865,BAINBRIDGE & BURROW,0
36.78049,,-76.284027,1864,BAINBRIDGE & YAGER,0
36.792722,,-76.279119,1867,BAINBRIDGE & FRANKLIN,0
36.79004,,-76.28016,1866,BAINBRIDGE & ROSEMONT,0
36.804844,,-76.276207,1869,BAINBRIDGE & CHESAPEAKE,0
36.822667,,-76.342868,5909,TURNPIKE & COMMONWEALTH,0
37.022855,,-76.427511,2109,79TH & CHESTNUT,0
37.021347,,-76.431291,2108,79TH & ROANOKE,0
37.020223,,-76.363436,6058,LASALLE & AUGUSTA,0
36.84158,,-76.213839,9558_merged_9740032,MILITARY HWY STATION,0
36.879786,,-76.29798,6055,38TH & KILLAM,0
37.014255,,-76.448421,2102,75TH & WARWICK,0
37.021226,,-76.363588,6057,LASALLE & AUGUSTA,0
36.879867,,-76.298384,6056,38th & KELLAM,0
36.939945,,-76.318877,6051,HAMPTON & TAUSSIG,0
37.019114,,-76.437746,2106,MARSHALL & 79th,0
36.847526,,-76.289366,6052,CITY HALL & BANK,0
37.046636,,-76.473408,2639,WARWICK & LOGAN,0
37.039649,,-76.46863,2635,WARWICK & RIDGEWAY,0
37.037589,,-76.467078,2634,WARWICK & JAMES RIVER,0
36.873328,,-76.252616,2637,HANBURY & BALLENTINE,0
37.042231,,-76.471978,2636,WARWICK & ELM,0
37.032693,,-76.460692,2630,WARWICK & MAIN,0
37.035482,,-76.464709,2632,WARWICK & WESTOVER,0
36.80076,,-76.130446,1537,PRINCESS ANNE & BRANTINGHAM,0
36.902392,,-76.277819,0032,GRANBY & SIR OLIVER,0
36.841013,,-76.133708,1243,COLUMBUS & CENTRAL PARK,0
37.107836,,-76.514997,2741,WARWICK & OYSTER POINT,0
37.110734,,-76.517169,2740,WARWICK & MENCHVILLE,0
37.105355,,-76.507346,2743,NETTLES & OYSTER POINT,0
37.104643,,-76.510085,2742,OYSTER POINT & WARWICK,0
37.101402,,-76.503073,2745,NETTLES & WENDWOOD,0
37.009429,,-76.355234,2032,KECOUGHTAN & ARMSTRONG,0
37.089637,,-76.496069,2747,NETTLES & SANDPEBBLE,0
37.100167,,-76.500805,2746,NETTLES & CLAIBORNE,0
37.020309,,-76.352476,2038,KECOUGHTAN & VICTORIA,0
36.945947,,-76.324301,8869,MORRIS & VIRGINIA,0
36.784086,,-76.096678,1530,UNIVERSITY & FACULTY,0
36.835932,,-76.306839,5202,EFFINGHAM & QUEEN,0
36.818962,,-76.304339,5209,PORTSMOUTH & GREEN,0
36.849202,,-76.203802,5198,POPLAR HALL & FRIZZELL,0
37.016895,,-76.442835,3234,JEFFERSON & 79TH,0
37.022228,,-76.446115,3235,JEFFERSON & MORRIS,0
36.808176,,-76.135002,1538,PRINCESS ANNE & CAMBELTON,0
37.06024,,-76.343807,2964,LITTLE BACK RIVER & GLENWOOD,0
37.055694,,-76.34565,2967,LITTLE BACK RIVER & WALNUT,0
37.05695,,-76.345364,2966,LITTLE BACK RIVER & LEXINGTON,0
37.055427,,-76.332613,2961,CLEMWOOD & GUILDFORD,0
37.058416,,-76.336193,2962,CLEMWOOD & APOLLO,0
36.793869,,-76.328283,1780,GEORGE WASHINGTON & VICTORY,0
36.790589,,-76.330622,1781,GEORGE WASHINGTON & WINTERGREEN,0
37.048176,,-76.347768,2969,KING & ROLAND,0
36.848074,,-76.250744,2968,BALLENTINE & LAKEBRIDGE,0
36.784736,,-76.351146,1786,AARON & GAUNTLET,0
36.784032,,-76.354192,1787,SIR GALAHAD & AARON,0
37.042936,,-76.438971,3048,TODDS & WELLINGTON,0
37.022857,,-76.434654,3041,ORCUTT & 81ST,0
37.022787,,-76.41772,3040,LASSITER & JUANITA,0
37.032665,,-76.439845,3043,ORCUTT & GOLDSBORO,0
37.03029,,-76.438662,3042,ORCUTT & ANDOVER,0
37.037856,,-76.440748,3045,ORCUTT & SHARPLEY,0
37.034891,,-76.440633,3044,ORCUTT & FRIENDLY,0
37.042704,,-76.441292,3047,ORCUTT & TODDS,0
37.040752,,-76.44096,3046,ORCUTT & BARRINGTON,0
36.840924,,-76.057838,1078,VIRGINIA BEACH & LYNNRIVER,0
36.841629,,-76.053317,1079,VIRGINIA BEACH & PARKER,0
36.843071,,-76.067472,1076,VIRGINIA BEACH & FOUNDRY,0
36.840879,,-76.061594,1077,VIRGINIA BEACH & EUREKA,0
36.843979,,-76.072023,1074,VIRGINIA BEACH & LYNNHAVEN,0
36.843844,,-76.069827,1075,VIRGINIA BEACH & YORKTOWN,0
36.842072,,-76.085216,1072,VIRGINIA BEACH & GROVELAND,0
36.843253,,-76.077226,1073,VIRGINIA BEACH & KINGS GRANT,0
36.841424,,-76.089822,1070,VIRGINIA BEACH & PLAZA TRAIL,0
36.841734,,-76.087591,1071,VIRGINIA BEACH & KING RICHARD,0
36.845208,,-75.977559,1096,ARCTIC & VIRGINIA BEACH,0
36.842683,,-75.98897,1090,VIRGINIA BEACH & COLONY,0
36.843414,,-75.984966,1091,VIRGINIA BEACH & PARKS,0
36.84373,,-75.98315,1092,VIRGINIA BEACH & CYPRESS,0
36.903957,,-76.131464,0107,SHORE & WINDWARD,0
36.84285,,-75.989095,1098,VIRGINIA BEACH & JEFFERSON,0
37.089897,,-76.435227,3135,SAUNDERS & BETZ,0
36.834937,,-76.316482,5182,HIGH & TWINE,0
37.09332,,-76.445701,3137,DAPHIA & SAUNDERS 1,0
37.091218,,-76.439765,3136,SAUNDERS & KINGWOOD,0
37.087812,,-76.425689,3133,SAUNDERS & BIG BETHEL,0
37.0793,,-76.425354,3132,BIG BETHEL & TUPELO,0
37.092203,,-76.445651,3138,DAPHIA & SAUNDERS 2,0
36.847022,,-76.129759,0106,CORPORATION & CONSTITUTION,0
36.863202,,-76.027829,1418,FIRST COLONIAL & WILL O WISP,0
36.806107,,-76.079686,1410,LYNNHAVEN & LAMPLIGHT,0
36.798323,,-76.086894,1411,LYNNHAVEN & HOLLAND,0
36.796162,,-76.088949,1412,LYNNHAVEN & CRIMSON HOLLY,0
36.799393,,-76.0988,1414,ROSEMONT & SHAWN,0
36.80594,,-76.100204,1415,ROSEMONT & STONESHORE,0
36.809033,,-76.099287,1416,ROSEMONT & WILLOW LAKE,0
36.811891,,-76.098022,1417,ROSEMONT & HOLLAND,0
36.88393,,-76.182292,1322,NORTHAMPTON & BAKER,0
36.891559,,-76.171553,1323,NORTHAMPTON & BAYSIDE,0
36.877764,,-76.19198,1320,NORTHAMPTON & WESLEYAN,0
36.880767,,-76.187139,1321,NORTHAMPTON & BURTON STATION,0
36.867917,,-76.133031,0101,INDEPENDENCE & WITCHDUCK,0
36.886621,,-76.179716,1327,NORTHAMPTON & DIAMOND SPRINGS,0
36.895354,,-76.155264,1324,NORTHAMPTON & SHELL,0
36.89478,,-76.157896,1325,NORTHAMPTON & JACK FROST,0
36.883206,,-76.184034,1329,NORTHAMPTON & BAKER,0
36.722016,,-76.30607,5766,GRASSFIELD & CAHOON,0
36.859588,,-76.300673,5767,COLLEY & FAIRFAX,0
36.743576,,-76.2586,5764,RIVER WALK & SENTARA,0
36.736142,,-76.246832,5765,CHESAPEAKE COMMUNITY SERVICE BOARD,0
36.746626,,-76.267968,5763,RIVER WALK & GREAT BRIDGE,0
37.027813,,-76.362021,5563,PEMBROKE & PARKDALE,0
36.882468,,-75.985965,1256,ATLANTIC & 56TH,0
36.884128,,-75.986451,1257,ATLANTIC & 58TH,0
36.872807,,-75.982947,1254,ATLANTIC & 45TH,0
36.753173,,-76.05627,1527,PRINCESS ANNE & DEGRASSE,0
36.870793,,-75.982355,1252,ATLANTIC & 42ND,0
36.833652,,-75.972456,1250,PACIFIC & WINSTON SALEM,0
36.760136,,-76.01978,1523,PRINCESS ANNE & GENERAL BOOTH,0
36.773823,,-76.088312,1529,PRINCESS ANNE & DAM NECK,0
36.889152,,-75.988016,1259,ATLANTIC & 64TH,0
36.847316,,-76.2776,0604,TIDEWATER & CHARLOTTE,0
36.879025,,-76.226191,0905,ROBIN HOOD & WALMER,0
36.879947,,-76.221355,0907,ROBIN HOOD & AYLIFF,0
36.885554,,-76.222786,0901,AZALEA GARDEN & WINDERMERE,0
36.888177,,-76.221103,0900,AZALEA GARDEN & IOWA,0
36.881259,,-76.225551,0903,AZALEA GARDEN & BEAMON,0
36.880927,,-76.21806,0908,ROBIN HOOD & ALMEDA,0
37.025785,,-76.349858,3343,ARMISTEAD & QUEEN,0
36.743173,,-76.243819,5705,BATTLEFIELD & WIMBLEDON,0
36.868158,,-76.21118,5706,MILITARY & LAKE HERBERT,0
36.884119,,-76.134321,5707,INDEPENDENCE & EWELL,0
36.791096,,-76.233722,5700,OLD GREENBRIER & WOODLAKE,0
36.857535,,-76.293397,5701,OLNEY & MOWBRAY,0
36.841546,,-76.212587,9558_merged_9740011,MILITARY HWY STATION,0
37.058331,,-76.427365,3057,BIG BETHEL & VILLAGE,0
37.046267,,-76.429827,3054,BIG BETHEL & OLD BIG BETHEL,0
36.941709,,-76.245824,0343,CHESAPEAKE & LEICESTER,0
36.829458,,-76.265416,5947,WILSON & CASS,0
36.82133,,-76.390489,5945,PORTSMOUTH & HODGES FERRY,0
36.952846,,-76.319641,5942,MARYLAND & BUNKER HILL,0
36.806763,,-76.078124,5943,LYNNHAVEN & MAGIC HOLLOW,0
36.819573,,-76.222522,5940,INDIAN RIVER & MCDONALD,0
36.939178,,-76.245436,0344,CHESAPEAKE & FARRELL,0
37.042555,,-76.43002,3052,TODDS & OLD BIG BETHEL,0
36.923972,,-76.243073,0349,CHESAPEAKE & SHEPPARD,0
36.929891,,-76.244011,0348,CHESAPEAKE & FISHERMANS,0
36.825681,,-76.24275,5948,INDIAN RIVER & ORMER,0
36.822654,,-76.234872,5949,INDIAN RIVER & LILAC,0
36.915387,,-76.249231,0581,LITTLE CREEK & ELTON,0
36.907065,,-76.11047,5785,SHORE & MARLIN BAY,0
36.907606,,-76.085707,5786,SHORE & VISTA,0
36.915682,,-76.251449,0582,LITTLE CREEK RD & OLD OCEAN VIEW,0
36.855342,,-76.177259,5780,NEWTOWN & VIRGINIA BEACH,0
36.855352,,-76.177579,5781,NEWTOWN & VIRGINIA BEACH,0
36.853515,,-76.022876,5782,FIRST COLONIAL & LAUREL,0
36.901062,,-76.256488,0586,TIDEWATER & WIDGEON,0
36.891077,,-76.258618,0589,TIDEWATER & NORVIEW,0
37.042759,,-76.43313,3051,TODDS & WHEALTON,0
36.836597,,-75.97177,5788,ATLANTIC & 8TH,0
36.842261,,-75.973346,5789,ATLANTIC & 13TH,0
36.915562,,-76.272732,0169,GRANBY & LITTLE CREEK,0
36.942702,,-76.260263,0162,GRANBY & LEICESTER,0
36.94855,,-76.25634,0161,GRANBY & OSBORNE,0
36.950436,,-76.254241,0160,GRANBY & GOVERNMENT,0
36.934296,,-76.264655,0166,GRANBY & BAYVIEW,0
36.9366,,-76.263435,0165,GRANBY & LANDALE,0
36.939572,,-76.261724,0164,GRANBY & CHESTER,0
37.025732,,-76.431276,6118,MERCURY & CHESTNUT,0
36.847201,,-76.290229,8004_merged_9740022,MACARTHUR SQUARE,0
37.036245,,-76.411157,6114,MERCURY & BEECHWOOD,0
37.033396,,-76.416767,6115,MERCURY & ASPENWOOD,0
37.030382,,-76.422784,6116,MERCURY & YALE,0
37.027187,,-76.429197,6117,MERCURY & KINSMEN,0
37.043797,,-76.35236,6110,MERCURY & SALEM,0
37.043866,,-76.357489,6111,MERCURY & SELDENDALE,0
37.038305,,-76.405247,6112,MERCURY & TODDS,0
37.037752,,-76.407706,6113,MERCURY & ABERDEEN,0
37.0045,,-76.387274,2358,SHELL & PENNSYLVANIA,0
37.00506,,-76.389718,2359,G & MIMOSA,0
36.810545,,-76.209114,0769,PROVIDENCE & AMHERST,0
36.807746,,-76.216076,0768,AUBURN & COLLEGE PARK,0
36.818014,,-76.217283,0765,INDIAN RIVER & LELAND,0
37.009727,,-76.378399,2353,SHELL & WINONA,0
36.808862,,-76.218052,0767,AUBURN & MILITARY,0
37.012033,,-76.374755,2351,SHELL & GARY,0
37.006101,,-76.384116,2356,SHELL & MARYLAND,0
37.008499,,-76.380339,2354,SHELL & POWHATAN,0
36.824334,,-76.239472,0762,INDIAN RIVER & SAINT LAWRENCE,0
36.870328,,-76.281497,0017,26TH & ARMISTEAD,0
36.845864,,-76.269374,8007_merged_9740016,NSU,0
36.865171,,-76.284842,0015,MONTICELLO & 18TH,0
36.860473,,-76.286716,0013,MONTICELLO & PRINCESS ANNE,0
36.854782,,-76.287094,0011,MONTICELLO & STARKE,0
36.852998,,-76.288067,0010,MONTICELLO & BRAMBLETON,0
36.872881,,-76.28142,0018,MONTICELLO & 29TH,0
37.036054,,-76.347316,2136,KING & KEMPTON,0
37.029566,,-76.345445,2137,KING & PEMBROKE,0
37.041542,,-76.348476,2134,KING & LANGLEY,0
37.039619,,-76.348318,2135,KING & RIP RAP,0
37.035875,,-76.366589,2132,ARMISTEAD & LAKE HAMPTON,0
37.035387,,-76.362648,2133,LASALLE & ARMISTEAD,0
37.040608,,-76.377001,2130,PINE CHAPEL & ARMISTEAD,0
37.03908,,-76.373033,2131,ARMISTEAD & FINDLEY,0
36.887784,,-76.241878,0367,CHESAPEAKE & CRAVEN,0
36.855179,,-76.198405,2138,VIRGINIA BEACH & POPLAR HALL,0
36.853977,,-76.248325,2139,BALLENTINE & WOODLAND,0
37.066525,,-76.491854,2648,WARWICK & UNIVERSITY,0
37.015245,,-76.448749,2103,WARWICK & REBEL,0
36.881074,,-76.425449,5162,COLLEGE & LAKE VIEW,0
36.863781,,-76.396644,5167,VILLAGE & CHURCHLAND,0
37.049072,,-76.474694,2640,WARWICK & HARPERSVILLE,0
37.052188,,-76.47817,2641,WARWICK & COPELAND,0
37.055671,,-76.481276,2643,WARWICK & MATTHEW,0
36.821787,,-76.296945,2645,PORT CENTRE & PREMIER PLACE,0
37.064136,,-76.489925,2647,WARWICK & SWEETBRIAR,0
36.81194,,-76.251424,9219,FIRESIDE & STALHAM,0
36.812099,,-76.251686,9217,FIRESIDE & PARKSIDE,0
36.978555,,-76.430928,2002,WASHINGTON & 26TH,0
36.978081,,-76.429267,2003,25TH & HUNTINGTON,0
36.983389,,-76.433966,2000,NEWPORT NEWS TRANSFER CENTER,0
36.980577,,-76.432177,2001,WASHINGTON & 29TH,0
36.983446,,-76.415749,2006,25TH & MARSHALL,0
36.984519,,-76.413036,2007,25TH & WICKHAM,0
36.981562,,-76.420502,2004,25TH & JEFFERSON,0
36.986322,,-76.408559,2009,25TH & ROANOKE,0
36.852016,,-76.248093,9235,BALLENTINE & VIRGINIA BEACH,0
37.011899,,-76.449464,2100,73RD & BELVEDERE,0
36.898846,,-76.247776,0822,PHILPOTTS & DEVONSHIRE,0
36.847012,,-75.978043,6066,ARCTIC & 19TH,0
37.018719,,-76.437361,6067,MARSHALL & 79TH,0
37.020518,,-76.433343,2107,79TH & ORCUTT,0
37.056518,,-76.32745,2910,FOX HILL & WILLOW OAKS,0
37.058153,,-76.322253,2911,FOX HILL & BONAIRE,0
37.058939,,-76.317721,2912,FOX HILL & WOODLAND,0
37.056502,,-76.311742,2913,FOX HILL & NICKERSON,0
37.056955,,-76.308634,2914,FOX HILL & EAGLES,0
37.058559,,-76.304495,2915,FOX HILL & ROSSER,0
37.059391,,-76.300538,2916,FOX HILL & OLD BUCKROE,0
37.056281,,-76.30101,2917,OLD BUCKROE & RANALET,0
36.78025,,-76.347116,1793,KING ARTHUR & ERIC,0
37.051531,,-76.300452,2919,OLD BUCKROE & ANDREWS,0
36.779429,,-76.35063,1791,GUENEVERE & SIR MELIOT,0
36.773298,,-76.324572,1795,CANAL & BROADMOOR,0
36.781361,,-76.345224,1794,CAMELOT & CASTLE,0
36.847952,,-76.277059,3024,TIDEWATER & MAY,0
36.810243,,-76.20096,0808,INDIAN RIVER & REON,0
37.034173,,-76.400348,2071,WEAVER & ROXBURY,0
36.810637,,-76.209446,0809,PROVIDENCE & BLAKELY,0
36.8404,,-76.096516,1068,VIRGINIA BEACH & ROSEMONT,0
36.877077,,-76.260878,0378,LAFAYETTE & DUNKIRK,0
36.843146,,-76.12142,1061,VIRGINIA BEACH & THALIA,0
36.842089,,-76.115439,1063,VIRGINIA BEACH & THALIA STATION,0
36.839782,,-76.108256,1065,VIRGINIA BEACH & LYNN SHORES,0
36.840637,,-76.111482,1064,VIRGINIA BEACH & KENTUCKY,0
36.839711,,-76.103179,1067,VIRGINIA BEACH & STRIP MALL,0
36.835263,,-76.337014,9468,QUEEN & FLORIDA,0
36.876016,,-76.256543,0376,LAFAYETTE & LENS,0
36.876483,,-76.258449,0377,LAFAYETTE & BREST,0
36.842706,,-76.0122,1087,VIRGINIA BEACH & OCEANA,0
36.847681,,-76.021536,1086,FIRST COLONIAL & DONNA,0
36.849916,,-76.022114,1085,FIRST COLONIAL & LASKIN,0
36.875632,,-76.25484,0375,LAFAYETTE & MARNE,0
36.849188,,-76.028662,1083,LASKIN & VILLAGE,0
36.848221,,-76.033219,1082,LASKIN & REGENCY,0
36.841663,,-76.051074,1080,VIRGINIA BEACH & BYRD,0
36.878918,,-76.249562,0372,CHESAPEAKE & ROBIN HOOD,0
36.841797,,-75.993802,1088,VIRGINIA BEACH & BIRCH LAKE,0
37.091143,,-76.447713,3140,SAINT EGNATIOS & RAVOLIS,0
37.089481,,-76.447096,3142,SAINT EGNATIOS & ROUVALIS 2,0
37.092239,,-76.447395,3143,DAPHIA & SAINT EGNATIOS,0
37.094241,,-76.447657,3145,DAPHIA & SAUNDERS,0
37.095206,,-76.449626,3146,SAUNDERS & HARPERSVILLE,0
37.097134,,-76.453978,3147,HARPERSVILLE & BAYBERRY,0
37.098109,,-76.457696,3148,HARPERSVILLE & J CLYDE MORRIS,0
37.097153,,-76.4592,3149,J CLYDE MORRIS & HARPERSVILLE,0
36.835121,,-76.312133,3384,HIGH & PRIMROSE,0
37.175753,,-76.569824,3382,WARWICK & DOZIER,0
37.190433,,-76.571525,3380,WARWICK & RIPLEY,0
37.181031,,-76.570168,3381,WARWICK & ENTERPRISE,0
37.094464,,-76.467219,3388,ROCK LANDING & CITY CENTER,0
36.810414,,-76.072842,1408,LYNNHAVEN & SOUTH LYNNHAVEN,0
36.827264,,-76.246453,0453,INDIAN RIVER & WINGFIELD,0
36.82872,,-76.067392,1407,LYNNHAVEN & VIKING,0
36.838345,,-76.065145,1406,LYNNHAVEN & SOUTHERN,0
36.866695,,-76.029748,1404,FIRST COLONIAL & BANCROFT HALL,0
36.941484,,-76.230514,0143,OCEAN VIEW & WILLOW,0
36.85673,,-76.279711,1339,VIRGINIA BEACH & LINCOLN,0
36.862179,,-76.177281,1335,BAKER & HAMPSHIRE,0
36.8648,,-76.178972,1334,BAKER & LAKE EDWARD,0
36.858006,,-76.176513,1337,NEWTOWN & LAKE EDWARD,0
36.861133,,-76.176526,1336,BAKER & HAMPSHIRE,0
36.880765,,-76.187748,1330,NORTHAMPTON & BURTON STATION,0
36.869722,,-76.181109,1333,BAKER & CAMPUS,0
36.872158,,-76.185273,1332,WESLEYAN & COLLEGE,0
36.863982,,-76.301104,5779,REDGATE & CHILDRENS WAY,0
36.723632,,-76.292506,5778,CEDAR & BELLS MILL,0
36.847092,,-76.185957,3129,NORTH CENTER & CENTER,0
36.740748,,-76.25468,5775,GREAT BRIDGE & TELFYAN,0
36.736271,,-76.246779,5774,CHESAPEAKE COMMUNITY SERVICE BOARD,0
36.741612,,-76.255875,5777,GREAT BRIDGE & TIGER,0
36.745415,,-76.260334,5776,GREAT BRIDGE & BETTES WAY,0
37.096938,,-76.458813,3201,J CLYDE MORRIS & HARPERSVILLE,0
37.022471,,-76.393235,3092,BRIARFIELD & GARRETT,0
37.019338,,-76.398275,3090,BRIARFIELD & NORTHWOOD,0
37.020795,,-76.395226,3091,BRIARFIELD & ROBERT E LEE,0
37.103736,,-76.480932,3096,CANON & COMPASS WAY,0
36.820745,,-76.125672,3097,COMMUTER & INDEPENDENCE,0
37.024837,,-76.390187,3094,BRIARFIELD & WARD,0
37.085994,,-76.48211,3095,JEFFERSON & LOFTIS,0
36.802623,,-76.263085,1249,ATLANTIC & NARROW,0
36.80698,,-76.255839,1248,CAMPOSTELLA & ARBOR GLEN,0
36.792196,,-76.080878,3098,HOLLAND & BUCKNER,0
36.798999,,-76.084908,3099,HOLLAND & LYNNHAVEN,0
36.81088,,-76.138343,1539,PRINCESS ANNE & TIMBERLAKE,0
36.779724,,-76.22477,5129,GREENBRIER MALL,0
36.793008,,-76.364398,9423,ROOSEVELT & VAUGHN,0
36.916298,,-76.28769,0970,LITTLE CREEK & GRANTHAM,0
36.916221,,-76.292181,0971,LITTLE CREEK & MOUNT PLEASANT,0
36.916191,,-76.29365,0972,LITTLE CREEK & DIVEN,0
36.916148,,-76.297524,0974,LITTLE CREEK & ENFIELD,0
36.915864,,-76.302329,0976,LITTLE CREEK & CORTLANDT,0
36.916126,,-76.307112,0978,LITTLE CREEK & HAMPTON,0
36.824546,,-76.268893,0979,WILSON & WADE,0
36.820713,,-76.346085,3125,TURNPIKE & RODMAN,0
36.832669,,-76.30691,1634,EFFINGHAM & SOUTH,0
36.947523,,-76.313754,3892,GILBERT & GALLEY,0
36.947848,,-76.307566,3893,GILBERT & BAINBRIDGE,0
36.951402,,-76.327954,3890,DECATUR & DILLINGHAM,0
36.947167,,-76.322862,3891,VIRGINIA & GILBERT,0
36.946358,,-76.26752,3894,FIRST VIEW & RIDGEWELL,0
36.786457,,-76.255981,0488,ROBERT HALL & MILITARY,0
36.785738,,-76.259245,0489,BATTLEFIELD & ROBERT HALL,0
36.794594,,-76.259392,0480,CAMPOSTELLA & HEMPLE,0
36.78517,,-76.266549,0482,CAMPOSTELLA & PORTLOCK,0
36.782534,,-76.267887,0483,CAMPOSTELLA & CORAL,0
36.778611,,-76.266517,0485,MILITARY & CAMPOSTELLA,0
36.788595,,-76.132811,5951,LYNNHAVEN & HANDCROSS,0
36.788022,,-76.139966,5950,LYNNHAVEN & BOXLEY,0
36.789403,,-76.125616,5953,LYNNHAVEN & SALEM,0
36.789235,,-76.124661,5952,LYNNHAVEN & SALEM,0
36.819912,,-76.222773,5955,INDIAN RIVER & MACDONALD,0
36.788002,,-76.143086,5954,LYNNHAVEN & CLIFFWOOD,0
36.94323,,-76.245874,5957,CHESAPEAKE & DUDLEY,0
36.803758,,-76.385754,5959,AIRLINE & BEDFORD,0
36.79649,,-76.258421,5958,CAMPOSTELLA & DEXTER,0
36.802988,,-76.185901,0806,INDIAN RIVER & GENERAL,0
36.804996,,-76.190241,0807,INDIAN RIVER & STRICKLAND,0
36.785578,,-76.156839,0800,LYNNHAVEN & BRIDLE CREEK,0
36.788052,,-76.162889,0801,INDIAN RIVER & WESTHAVEN,0
36.792922,,-76.163637,0802,INDIAN LAKES & HALIFAX,0
36.880166,,-76.248353,0371,CHESAPEAKE & NOTTAWAY,0
36.862271,,-75.979102,5797,ATLANTIC & 34TH,0
36.865977,,-75.980097,5796,ATLANTIC & 38TH,0
36.866638,,-75.980277,5795,ATLANTIC & 39TH,0
36.867733,,-75.981579,5794,PACIFIC & 40TH,0
36.849346,,-75.975256,5793,ATLANTIC & 21ST,0
36.915819,,-76.236278,0579,LITTLE CREEK & MOOSE,0
36.845224,,-75.974163,5791,ATLANTIC & 17TH,0
36.84366,,-75.973748,5790,ATLANTIC & 15TH,0
36.916949,,-76.229603,0576,LITTLE CREEK & MEADOW CREEK,0
36.916833,,-76.231724,0577,LITTLE CREEK & BISON,0
36.915416,,-76.212318,0570,LITTLE CREEK & AZALEA GARDEN,0
36.915241,,-76.215629,0571,LITTLE CREEK & MONA,0
36.915231,,-76.218342,0572,LITTLE CREEK & ROOSEVELT GARDENS,0
36.854563,,-75.976999,5798,ATLANTIC & 26TH,0
36.870869,,-76.282361,0390,MONTICELLO & 26TH,0
36.816208,,-76.108434,1454,HOLLAND & GOVERNORS,0
37.01776,,-76.362154,2345,LASALLE & MOORE,0
37.013617,,-76.366365,2347,VICTORIA & ALGONQUIN,0
37.014775,,-76.364135,2346,VICTORIA & HOMESTEAD,0
36.859129,,-76.249413,2341,BALLENTINE & PRINCESS ANNE,0
36.907895,,-76.103514,6109,SHORE & STRAFFORD,0
37.030169,,-76.36369,6108,MICHIGAN & LASALLE,0
37.059992,,-76.385547,6107,ARMISTEAD & ARMISTEAD POINTE,0
37.060893,,-76.386041,6106,ARMISTEAD & HAMPTON CENTER ROADS CTR PKWY,0
36.788065,,-76.110616,6104,PRINCESS ANNE & INDEPENDENCE,0
37.013983,,-76.370945,2349,HAMPTON ROADS & SHELL,0
37.01193,,-76.369346,2348,VICTORIA & COLONIAL,0
36.913771,,-76.06315,6101,SHORE & SANDALWOOD,0
36.912711,,-76.067367,6100,SHORE & CROIX,0
36.855418,,-76.275988,0718,CHAPEL & VIRGINIA BEACH,0
36.958217,,-76.256659,0719,OCEAN VIEW & MASON CREEK,0
36.849955,,-76.267525,0711,PARK & BOND,0
36.84793,,-76.269374,0712,PARK & OLNEY,0
36.8471,,-76.271385,0713,BRAMBLETON & MARSHALL,0
36.886429,,-76.236527,0717,SEWELLS POINT & NORVELLA,0
36.880177,,-76.281963,0022,GRANBY & 38TH,0
36.882987,,-76.281592,0023,GRANBY & DELAWARE,0
36.87707,,-76.281772,0020,GRANBY & 33RD,0
36.892238,,-76.27866,0027,GRANBY & ARDEN,0
36.88497,,-76.281295,0024,GRANBY & 42ND,0
36.844393,,-76.184616,9110,CITY LINE NORFOLK (NP),0
37.042131,,-76.402139,2067,CUNNINGHAM & SLOOP,0
36.868062,,-75.980698,9117,ATLANTIC & 40TH,0
36.818748,,-76.308791,1886,PORTSMOUTH & PEACH,0
36.819142,,-76.311313,1885,PORTSMOUTH & ELM,0
36.819082,,-76.315503,1883,PORTSMOUTH & BEECH,0
36.818455,,-76.318586,1882,PORTSMOUTH & DES MOINES,0
37.037962,,-76.400093,2121,POWER PLANT & MERCURY,0
36.850479,,-76.264951,2120,CORPREW & JOSEPH,0
37.041772,,-76.402192,2123,CUNNINGHAM & WATERFORD,0
37.039566,,-76.402566,2122,TODDS & MERCURY,0
37.046585,,-76.391534,2125,CUNNINGHAM & COLISEUM,0
36.902304,,-76.250543,0657,WIDGEON & PUGH,0
37.044756,,-76.390194,2126,COLISEUM & MERCHANT,0
37.038555,,-76.380127,2129,PINE CHAPEL & FREEMAN,0
36.866998,,-76.233707,2128,PRINCESS ANNE & AZALEA GARDEN,0
36.952024,,-76.257625,0156,FIRST VIEW & GOVERNMENT,0
37.018034,,-76.413104,3038,BIG BETHEL & BRIARFIELD,0
36.871736,,-76.232123,0626,SEWELLS POINT & DENVER,0
36.843083,,-76.260372,0627,KIMBALL & FORBES,0
36.850476,,-76.257095,0620,CORPREW & MAJESTIC,0
36.850578,,-76.251172,0621,CORPREW & GATE HOUSE,0
36.848262,,-76.250874,0622,BALLENTINE & MIDDLE TOWNE,0
36.939333,,-76.254909,0623,TIDEWATER & TWILLEY,0
36.842765,,-76.257904,0628,KIMBALL & MAJESTIC,0
37.085455,,-76.497613,2658,NETTLES & WINTERHAVEN,0
36.835582,,-76.347468,5176,HIGH & RODMAN,0
37.072887,,-76.493317,2652,WARWICK & MINTON,0
36.83477,,-76.322836,5179,HIGH & YORKTOWN,0
37.069336,,-76.49287,2650,WARWICK & HIDEN,0
37.08308,,-76.497844,2657,WARWICK & TURLINGTON,0
37.080074,,-76.496874,2655,WARWICK & DEEP CREEK,0
37.021364,,-76.414922,3039,BIG BETHEL & JOYNES,0
36.889638,,-76.239104,0365,CHESAPEAKE & NORVIEW,0
36.9451,,-76.322648,5925,VIRGINIA & PIERSEY,0
36.941126,,-76.325528,5926,SECOND & ESCORT,0
36.997929,,-76.389006,2018,KECOUGHTAN & HOLLYWOOD,0
36.993362,,-76.394445,2015,25TH & HICKORY,0
36.946507,,-76.267427,5920,1ST VIEW & RIDGEWELL,0
36.994489,,-76.393094,2016,KECOUGHTAN & PEAR,0
36.989323,,-76.401018,2011,25TH & PARISH,0
36.988182,,-76.403762,2010,25TH & OAK,0
36.990736,,-76.397509,2012,25TH & BUXTON,0
36.845864,,-76.269374,8007_merged_9740037,NSU STATION,0
36.812155,,-76.095637,1452,HOLLAND & CHANTRY,0
37.003404,,-76.444359,5923,NGGRUM WALK IN GATE,0
36.858465,,-76.274964,0449,GOFF & MIDRISE,0
36.876962,,-76.420486,5619,HAMPTON ROADS & RESPASS BEACH,0
36.828326,,-76.266414,0818,WILSON & CYPRESS,0
37.06242,,-76.340774,2902,LITTLE BACK RIVER & CLEMWOOD,0
37.060688,,-76.343001,2901,LITTLE BACK RIVER & ROSEWOOD,0
37.05876,,-76.344537,2900,LITTLE BACK RIVER & BEVERLY,0
37.055408,,-76.332974,2906,CLEMWOOD & GUILDFORD,0
37.022392,,-76.393548,3035,BRIARFIELD & GARRETT,0
37.054557,,-76.330578,2908,FOX HILL & COLONIES LANDING,0
36.876956,,-76.420115,5615,HAMPTON ROADS & RESPASS BEACH,0
36.832996,,-76.306681,1636,EFFINGHAM & COUNTY,0
36.884011,,-76.302239,0219,HAMPTON & 45TH,0
36.801724,,-76.323191,1650,GEORGE WASHINGTON & CHANNING,0
37.084323,,-76.463312,3152,DILIGENCE & ROCK LANDING,0
37.094804,,-76.459223,3150,J CLYDE MORRIS & TRAVERSE,0
37.076209,,-76.469414,3157,J CLYDE MORRIS & FORREST,0
37.077844,,-76.465331,3156,J CLYDE MORRIS & THIMBLE SHOALS,0
37.038483,,-76.386315,2839,COLISEUM & PINE CHAPEL,0
37.080838,,-76.465605,3154,THIMBLE SHOALS & GREAT OAK,0
37.150259,,-76.52939,2837,JEFFERSON & MCMORROW,0
37.024878,,-76.361954,2836,SETTLERS LANDING & LASALLE,0
37.024657,,-76.356909,2835,SETTLERS LANDING & BACK RIVER,0
37.024502,,-76.353367,2834,SETTLERS LANDING & STEWART,0
37.088754,,-76.464917,3391,OMNI & ROCK LANDING,0
37.088997,,-76.464436,3390,ROCK LANDING & OMNI,0
37.0909,,-76.472165,3393,CANON & BLUECRAB,0
37.088182,,-76.470423,3392,CANON & TOWN CENTER,0
36.856859,,-76.025741,1432,FIRST COLONIAL & SOUTHHALL,0
37.09171,,-76.476563,3394,CITY CENTER & TUGBOAT,0
37.125267,,-76.514179,3397,CHATHAM & BOYKIN,0
36.861258,,-76.271571,3396,TIDEWATER & SAINT JULIAN,0
36.826983,,-76.306648,1637,EFFINGHAM & BRIGHTON,0
36.788124,,-75.998339,9121_merged_9740033,GENERAL BOOTH & DAM NECK,0
36.840343,,-76.137115,1340,INDEPENDENCE & COLUMBUS,0
36.827367,,-76.133014,1342,INDEPENDENCE & EDWIN,0
36.821294,,-76.123383,1344,HOLLAND & COMMUTER,0
36.820088,,-76.121459,1345,HOLLAND & S. PLAZA,0
36.956034,,-76.253262,1346,OCEAN VIEW & FIRST VIEW,0
36.959253,,-76.260452,0608,OCEAN VIEW & 4TH VIEW,0
36.833803,,-76.302444,5548,COUNTY & DINWIDDIE,0
36.8337,,-76.302692,5549,COUNTY & DINWIDDIE,0
36.837782,,-76.306929,5542,EFFINGHAM & FIREHOUSE,0
36.841239,,-76.306986,5546,CRAWFORD & EFFINGHAM,0
36.838933,,-76.306923,5547,EFFINGHAM & NORTH,0
36.84123,,-76.306351,5544,CRAWFORD & EFFINGHAM,0
36.841379,,-76.309898,5545,CRAWFORD & HATTON,0
36.824965,,-76.157814,1502,PRINCESS ANNE & KEMPSHIRE,0
36.823331,,-76.152565,1503,PRINCESS ANNE & BAXTER,0
36.839945,,-76.182899,1500,PRINCESS ANNE & CHEYENNE,0
36.834673,,-76.178332,1501,PRINCESS ANNE & HILL PRINCE,0
36.830715,,-76.263469,3089,INDIAN RIVER & ELKIN,0
37.01758,,-76.413051,3088,BIG BETHEL & BRIARFIELD,0
36.815337,,-76.14502,1504,PRINCESS ANNE & EDWIN,0
36.810403,,-76.138177,1505,PRINCESS ANNE & TIMBERLAKE,0
37.022579,,-76.417948,3085,LASSITER & JUANITA,0
37.020906,,-76.414947,3087,BIG BETHEL & JOYNES,0
37.016909,,-76.443224,3083,JEFFERSON & 79TH,0
36.83078,,-76.263366,3082,INDIAN RIVER & ELKIN,0
36.918183,,-76.261712,0963,LITTLE CREEK & GALVESTON,0
36.869237,,-76.163297,5892,BROAD MEADOWS & WESLEYAN,0
36.87161,,-76.232225,0960,SEWELLS POINT & DENVER,0
36.915586,,-76.279783,0967,LITTLE CREEK & NEWPORT,0
36.915172,,-76.275856,0966,LITTLE CREEK & VICTORY,0
36.819439,,-76.441296,5896,STARMOUNT & JOLLIFF,0
36.917744,,-76.265349,0964,LITTLE CREEK & WEST GLEN,0
36.916042,,-76.284593,0969,LITTLE CREEK & RUTHVEN,0
36.843346,,-76.249104,3885,KIMBALL & KIMBALL,0
36.844329,,-76.247963,3884,WESTMINSTER & CHICK,0
36.916239,,-76.290351,3881,LITTLE CREEK & ARMFIELD,0
36.908584,,-76.240315,3880,CHESAPEAKE & JOHNSTONS,0
36.711727,,-76.275783,3883,CEDAR & COUNTRY CLUB,0
36.84479,,-76.251904,3882,WESTMINSTER & BALLENTINE,0
36.958483,,-76.326402,3889,DECATUR & HUGHES,0
36.947675,,-76.31274,3888,GILBERT & GALLEY,0
36.806727,,-76.26365,0499,ATLANTIC & MYERS,0
36.785779,,-76.266036,0493,CAMPOSTELLA & PORTLOCK,0
36.780263,,-76.268365,0492,CAMPOSTELLA & WAKE,0
36.778872,,-76.266482,0491,MILITARY & CAMPOSTELLA,0
36.781468,,-76.261887,0490,MILITARY & BATTLEFIELD,0
36.798555,,-76.257464,0496,CAMPOSTELLA & BROAD,0
36.792393,,-76.259932,0495,CAMPOSTELLA & MARK,0
36.788341,,-76.263839,0494,CAMPOSTELLA & DIAMOND HILL,0
36.853569,,-76.293885,8002_merged_9740040,YORK STREET FREEMASON STATION,0
36.780851,,-76.237997,4008,CROSSWAYS & STEPHANIE,0
36.771904,,-76.239167,4009,EXECUTIVE & EDEN WAY,0
36.826276,,-76.267851,0819,WILSON & MANSON,0
36.937256,,-76.254523,0625,TIDEWATER & BECK,0
36.826528,,-76.244095,0817,INDIAN RIVER & KEMP,0
36.899743,,-76.239214,0360,CHESAPEAKE & DUNDALE,0
36.822294,,-76.23088,0815,INDIAN RIVER & HAZEL,0
36.820598,,-76.22521,0814,INDIAN RIVER & JUSTIS,0
36.818226,,-76.216957,0813,INDIAN RIVER & LELAND,0
36.814837,,-76.215668,0812,MILITARY & INDIAN RIVER,0
36.77639,,-76.240576,4006,KRISTINA & CROSSWAYS,0
36.779687,,-76.233554,4007,CROSSWAYS & JARMAN,0
36.915947,,-76.209695,0569,LITTLE CREEK & TARPON,0
36.916508,,-76.206641,0568,LITTLE CREEK & NANCY,0
36.917175,,-76.203208,0567,LITTLE CREEK & WALTERS,0
36.918028,,-76.198067,0566,LITTLE CREEK & WOODALL,0
36.918174,,-76.193543,0565,LITTLE CREEK & SHORE,0
36.91795,,-76.195085,0561,LITTLE CREEK & SHORE,0
36.949527,,-76.260254,0153,FIRST VIEW & MAPLE,0
36.871511,,-76.276488,0387,27TH & LEO,0
36.875155,,-76.269596,0384,LAFAYETTE & ORLEANS,0
36.877518,,-76.267413,0382,LAFAYETTE & VERSAILLES,0
36.877858,,-76.263985,0380,LAFAYETTE & TIDEWATER,0
36.871141,,-76.278848,0389,27TH & FAWN,0
36.872026,,-76.301326,2532,HAMPTON & WOODROW,0
36.992197,,-76.395782,2530,MAPLE & 25TH,0
37.012059,,-76.374335,2330,SHELL & RALEIGH,0
37.045114,,-76.428834,3070,BIG BETHEL & OLD BIG BETHEL,0
37.012168,,-76.368394,2332,VICTORIA & ALLEGHANY,0
36.993449,,-76.397442,2531,MAPLE & 27TH,0
37.01442,,-76.364274,2334,VICTORIA & HOMESTEAD,0
37.017197,,-76.361536,2335,LASALLE & ERVIN,0
37.042737,,-76.428048,3071,BIG BETHEL & TODDS,0
36.988497,,-76.390974,2536,MAPLE & BLAIR,0
37.04273,,-76.430054,3072,TODDS & OLD BIG BETHEL,0
36.986176,,-76.393607,2537,BLAIR & CEDAR,0
36.850571,,-76.264139,0709,CORPREW & COVENANT,0
37.043022,,-76.434505,3073,TODDS & TOPPING,0
36.850233,,-76.249414,0703,CORPREW & BALLENTINE,0
36.902366,,-76.243763,0702,WIDGEON & GREGORY,0
36.906302,,-76.150714,0090,SHORE & GELA,0
36.850556,,-76.257681,0706,CORPREW & MAJESTIC,0
36.850608,,-76.255502,0705,CORPREW & NORCHESTER,0
37.043104,,-76.439201,3075,TODDS & RIDGECREST,0
36.917739,,-76.272298,0039,WARDS CORNER TRANSFER,0
37.04125,,-76.441327,3076,ORCUTT & TODDS,0
36.907084,,-76.275793,0034,GRANBY & FORSYTHE,0
36.912267,,-76.273557,0037,GRANBY & SUBURBAN,0
36.910177,,-76.274467,0036,GRANBY & GRANBY PARK,0
36.900566,,-76.278596,0031,GRANBY & DUMONT,0
36.897683,,-76.279585,0030,GRANBY & KINGSLEY,0
36.905833,,-76.276329,0033,GRANBY & SEEKEL,0
36.84985,,-76.201744,0917,POPLAR HALL & HONAKER,0
36.884376,,-76.18221,1328_merged_9740014,NORTHAMPTON & ADAMS,0
37.033093,,-76.440365,3078,ORCUTT & GOLDSBORO,0
36.821102,,-76.253736,9206,BETHEL & HARLING,0
37.030903,,-76.439319,3079,ORCUTT & ANDOVER,0
36.801398,,-76.35089,9424,GREENWOOD & NORMANDY,0
37.012591,,-76.419696,2488,BRIARFIELD & OLD CHESTNUT,0
37.01146,,-76.42206,2489,BRIARFIELD & CHESTNUT,0
37.01446,,-76.41477,2486,BRIARFIELD & BRIARWOOD,0
37.058893,,-76.300294,2950,OLD BUCKROE & SALT PONDS,0
37.016975,,-76.41174,2484,BRIARFIELD & BIG BETHEL,0
37.018659,,-76.405589,2482,BRIARFIELD & ABERDEEN,0
37.021458,,-76.404326,2480,ABERDEEN & WINGFIELD,0
37.05906,,-76.302719,2951,FOX HILL & SAINT ASHLEY,0
36.855161,,-76.235476,0637,VIRGINIA BEACH & KINGWOOD,0
36.938441,,-76.222809,0140,OCEAN VIEW & CAPEVIEW,0
36.849958,,-76.239942,0635,GATLING & TRICI,0
36.853235,,-76.241977,0634,SCOTT & VIRGINIA BEACH,0
37.033161,,-76.324049,2248,PEMBROKE & MERCURY,0
37.019248,,-76.321565,2249,COUNTY & MALLORY,0
36.842255,,-76.254167,0630,KIMBALL & BALLENTINE,0
37.017714,,-76.3238,2244,MALLORY & WILLIAMS,0
37.02062,,-76.319012,2247,MALLORY & SEWELL,0
37.022165,,-76.325835,2240,COUNTY & FRISSELL,0
36.857086,,-76.232588,0639,AZALEA GARDEN & VIRGINIA BEACH,0
36.855606,,-76.232997,0638,VIRGINIA BEACH & AZALEA GARDEN,0
36.990351,,-76.408427,2460,30TH & CHESTNUT,0
36.989168,,-76.407908,2461,28TH & CHESTNUT,0
36.988216,,-76.410166,2462,28TH & ROANOKE,0
36.76368,,-76.014821,5149,NIMMO & GENERAL BOOTH,0
36.93915,,-76.318473,5145,HAMPTON & B,0
36.954652,,-76.319813,5142,MARYLAND & HUGHES,0
36.937199,,-76.321198,5143,B & VIRGINIA,0
37.093687,,-76.471366,3401,CITY CENTER & CANON,0
36.85378,,-76.248389,3407,BALLENTINE & WOODLAND,0
37.077285,,-76.495055,2654,WARWICK & WELLESLEY,0
36.84738,,-75.97492,9562,ATLANTIC & 19TH,0
36.787612,,-75.998213,1466_merged_9740013,GENERAL BOOTH & DAM NECK,0
36.86441,,-76.240823,1188,PRINCESS ANNE & NEVADA,0
37.039812,,-76.403073,2068,TODDS & MERCURY,0
37.037896,,-76.400454,2069,POWER PLANT & MERCURY,0
36.988082,,-76.436818,2799,WASHINGTON & 41ST,0
36.998035,,-76.440722,2792,HUNTINGTON & 56TH,0
37.040369,,-76.382887,2061,SAVILLE & WALMART,0
36.955216,,-76.254599,2062,1ST VIEW & A VIEW,0
37.000371,,-76.442039,2791,HUNTINGTON & 59TH,0
37.046848,,-76.391829,2064,CUNNINGHAM & COLISEUM,0
36.991276,,-76.43879,2797,WASHINGTON & 46TH,0
36.994294,,-76.439026,2794,50TH & HUNTINGTON,0
36.993187,,-76.43997,2795,WASHINGTON & 49TH,0
36.861623,,-76.302489,0205,OLNEY & NORFOLK GENERAL,0
36.817183,,-76.066723,5019,LYNNHAVEN & INTERNATIONAL,0
37.061699,,-76.467078,3255,JEFFERSON & NEWPORT,0
36.855084,,-76.257824,1183,PRINCESS ANNE & MAJESTIC,0
36.854405,,-76.260911,1180,PRINCESS ANNE & RAINEY,0
36.953644,,-76.320972,5090,BUNKER HILL & MARYLAND,0
36.949207,,-76.319667,5092,MARYLAND & POWHATAN,0
36.947788,,-76.31058,5093,GILBERT & FARRAGUT,0
36.944465,,-76.30089,5094,2ND & BELLINGER,0
37.104997,,-76.506485,2665,NETTLES & OYSTER POINT,0
37.10134,,-76.502765,2663,NETTLES & GEORGIA,0
37.089434,,-76.495953,2660,NETTLES & SANDPEBBLE,0
36.863703,,-76.210274,5847,MILITARY & LOWERY,0
37.105085,,-76.496575,2668,OYSTER POINT & WATERMAN,0
37.044993,,-76.299151,2938,BUCKROE & RALPH,0
37.042836,,-76.303117,2939,OLD BUCKROE & WOOD,0
37.043839,,-76.295486,2936,BUCKROE & FIFTH,0
37.041767,,-76.298301,2930,PEMBROKE & ATLANTIC,0
37.041708,,-76.295535,2931,PEMBROKE & FOURTH,0
36.80579,,-76.343863,1744,GREENWOOD & PARADISE,0
36.916801,,-76.25582,5846,LITTLE CREEK & VANPATTEN,0
36.821986,,-76.306124,1645,EFFINGHAM & JEFFERSON,0
36.821005,,-76.306365,1644,EFFINGHAM & GARFIELD,0
36.819499,,-76.30601,1647,EFFINGHAM & PORTSMOUTH,0
36.8195,,-76.306285,1646,EFFINGHAM & ARGYLE,0
36.824365,,-76.306239,1641,EFFINGHAM & LINCOLN,0
36.824359,,-76.306504,1640,EFFINGHAM & LINCOLN,0
36.822592,,-76.306458,1642,EFFINGHAM & FAYETTE,0
36.758949,,-76.022074,3797,PRINCESS ANNE & CROSSROAD,0
36.801148,,-76.182066,0804,INDIAN RIVER & THOMPKINS,0
36.823167,,-75.978921,3796,GENERAL BOOTH & HEADQUARTERS,0
36.969525,,-76.410454,2808,6TH & AQUA VISTA,0
37.137928,,-76.546257,2809,WARWICK & BEECHMONT,0
36.845937,,-76.286011,8005_merged_9740044,CIVIC PLAZA STATION,0
37.097348,,-76.489081,3168,JEFFERSON & BELL KING,0
37.100961,,-76.49133,3169,JEFFERSON & HOGAN,0
37.091329,,-76.485386,3166,JEFFERSON & SAINT THOMAS,0
37.094057,,-76.487087,3167,JEFFERSON & ONNES,0
37.083101,,-76.48029,3164,JEFFERSON & THIMBLE SHOALS,0
37.07879,,-76.477603,3162,JEFFERSON & PAVILION,0
37.072452,,-76.477901,3160,J CLYDE MORRIS & KINGSTOWNE,0
37.076004,,-76.475906,3161,JEFFERSON & FORREST,0
36.90233,,-76.247453,0658,WIDGEON & THAXTON,0
36.841522,,-76.056326,1423,VIRGINIA BEACH & HUTTON,0
37.016688,,-76.453429,3368,HUNTINGTON PARK PNR,0
36.910398,,-76.077731,1424,SHORE & STARFISH,0
36.992339,,-76.409417,2407,CHESTNUT & 33RD,0
37.093849,,-76.471217,3364,CITY CENTER & CANON,0
36.837386,,-76.350368,3365,HIGH & WILLETT,0
37.099151,,-76.475976,3367,CANON & ACHIEVEMENT,0
37.087855,,-76.480528,3360,FISHING POINT & CITY CENTER,0
37.089988,,-76.464761,3361,ROCK LANDING & OMNI,0
37.094312,,-76.467007,3363,ROCK LANDING & BLUE CRAB,0
36.988332,,-76.413458,2403,30TH & ORCUTT,0
36.788995,,-76.097195,1359,ROSEMONT & BUCKNER,0
36.794828,,-76.098825,1358,ROSEMONT & LYNNHAVEN,0
36.986824,,-76.414247,2401,WICKHAM & 28TH,0
36.798166,,-76.098917,1357,ROSEMONT & DAHLIA,0
36.802477,,-76.100018,1356,ROSEMONT & NORTHWOOD,0
36.812344,,-76.098308,1354,ROSEMONT & HOLLAND,0
36.833697,,-76.305209,5554,COUNTY & GREEN,0
36.833498,,-76.3089,5551,COUNTY & CRABAPPLE,0
36.833427,,-76.312236,5550,COUNTY & ELM,0
36.833665,,-76.304003,5553,COUNTY & WASHINGTON,0
36.833619,,-76.309233,5552,COUNTY & CRABAPPLE,0
36.82848,,-76.167514,1515,PRINCESS ANNE & PARLIAMENT,0
36.759676,,-76.020139,1514,PRINCESS ANNE & GENERAL BOOTH,0
36.843203,,-76.260675,0700,KIMBALL & FORBES,0
36.830493,,-76.173312,1516,PRINCESS ANNE & CAPOT,0
36.888374,,-76.137369,1511,INDEPENDENCE & CULLEN,0
36.77367,,-76.08855,1510,PRINCESS ANNE & DAM NECK,0
36.753184,,-76.056491,1512,PRINCESS ANNE & DEGRASSE,0
36.874563,,-76.136518,5882,HAYGOOD & TWAIN,0
36.871998,,-76.142613,5881,HAYGOOD & HUNTING HILL,0
36.869934,,-76.147711,5880,HAYGOOD & ARAGONA,0
36.826817,,-76.29969,5887,PORT CENTRE & LINCOLN,0
36.711014,,-76.260444,5885,CEDAR & CEDAR LANE,0
36.907889,,-76.238328,0959,JOHNSTONS & ROSEMONT,0
36.906664,,-76.232191,0956,MILITARY & JOHNSTONS,0
36.908823,,-76.234619,0957,JOHNSTONS & MILITARY,0
36.900978,,-76.228036,0954,MILITARY & LONGDALE,0
36.898383,,-76.226147,0953,MILITARY & MEADOW LAKE,0
36.893205,,-76.222299,0950,MILITARY & NORVELLA,0
36.895593,,-76.224054,0951,MILITARY & NORVIEW,0
37.088273,,-76.483221,3184,CITY CENTER & JEFFERSON,0
36.830622,,-76.341193,3185,BART & FREDERICK,0
37.073154,,-76.49375,3187,WARWICK & MINTON,0
37.100485,,-76.491389,3180,JEFFERSON & HOGAN,0
37.097717,,-76.4897,3181,JEFFERSON & BELL KING,0
37.093588,,-76.487139,3182,JEFFERSON & MULLER,0
37.082074,,-76.480075,3188,JEFFERSON & KINGSWAY,0
37.080454,,-76.479029,3189,JEFFERSON & PILOT HOUSE,0
36.869053,,-76.16333,5877,BROAD MEADOWS & JUSTIN,0
36.866752,,-76.161712,5878,BROAD MEADOWS & HENDERSON,0
36.865425,,-76.158728,5879,NEWTOWN & LEARNING,0
36.780448,,-76.238279,4013,CROSSWAYS & STEPHANIE,0
36.771223,,-76.238649,4012,EXECUTIVE & EDEN WAY,0
36.768348,,-76.23149,4011,VOLVO & PROGRESSIVE,0
36.768071,,-76.23138,4010,VOLVO & PROGRESSIVE,0
36.830546,,-76.261673,0826,CAMPOSTELLA & INDIAN RIVER,0
36.827949,,-76.262477,0827,MELON & CAMPOSTELLA,0
36.77958,,-76.233788,4014,CROSSWAYS & JARMAN,0
36.917662,,-76.199263,0559,LITTLE CREEK & REDMON,0
36.870709,,-76.266246,0598,TIDEWATER & HANCOCK,0
36.916078,,-76.225926,0551,LITTLE CREEK & WEDGEWOOD,0
36.915776,,-76.209365,0556,LITTLE CREEK &  TARPON,0
36.916518,,-76.205414,0557,LITTLE CREEK & NANCY,0
36.915013,,-76.220314,0554,LITTLE CREEK & HALPRIN,0
36.915068,,-76.212926,0555,LITTLE CREEK & BROOKFIELD,0
36.899544,,-76.242429,6125,SEWELLS POINT & MARIETTA,0
37.043434,,-76.352017,6124,MERCURY & KING,0
37.035448,,-76.411906,6121,MERCURY & TALLWOOD,0
36.838721,,-75.972535,9561,ATLANTIC & 10TH,0
37.043531,,-76.35721,6123,MERCURY & EASTERLY,0
37.037428,,-76.407533,6122,MERCURY & ABERDEEN,0
37.004998,,-76.385682,2323,SHELL & ROBINSON,0
36.842006,,-76.051009,1111,VIRGINIA BEACH & GREAT NECK,0
37.004161,,-76.389544,2321,G & SHELL,0
36.883596,,-76.28911,0735,NEWPORT & PENNSYLVANIA,0
37.009507,,-76.378447,2327,SHELL & WINONA,0
37.0082,,-76.38055,2326,SHELL & POWHATAN,0
37.007214,,-76.382131,2325,SHELL & CHESTERFIELD,0
36.8781,,-76.288459,0731,COLONIAL & 35TH,0
36.84619,,-76.253188,8008_merged_9740020,BALLENTINE/BROAD CREEK,0
36.841164,,-76.058669,1112,VIRGINIA BEACH & CRIPPLE CREEK,0
37.025892,,-76.313523,2292,MALLORY & SHERWOOD,0
36.814075,,-76.101254,1443,HOLLAND & CHIMNEY HILL,0
36.815076,,-76.104908,1442,HOLLAND & CHASEWAY,0
36.94809,,-76.256316,0048,GRANBY & BATTERSEA,0
37.022557,,-76.316182,2290,MALLORY & KELLY,0
36.934606,,-76.264076,0042,GRANBY & BAYVIEW,0
36.939627,,-76.261315,0044,GRANBY & CHESTER,0
36.943136,,-76.259781,0046,GRANBY & RANDALL,0
36.801933,,-76.323205,1560,GEORGE WASHINGTON & CHANNING,0
36.945151,,-76.29926,8872,THIRD & BELLINGER,0
36.778937,,-76.348076,1792,GUENEVERE & SIR GAWAINE,0
37.029059,,-76.311002,2294,MALLORY & PRIMROSE,0
36.992205,,-76.424424,2498,MADISON & 40TH,0
36.816299,,-76.263723,1291,LIBERTY & GREER,0
37.009111,,-76.427857,2491,BRIARFIELD & WICKHAM,0
37.010667,,-76.42399,2490,BRIARFIELD & ROANOKE,0
36.797007,,-76.349764,2493,GUST & BUNCHE,0
36.995724,,-76.426623,2495,MADISON & 46TH,0
36.993485,,-76.425225,2497,MADISON & 42ND,0
36.856024,,-76.273909,0602,TIDEWATER & PRINCESS ANNE,0
36.866978,,-76.268865,0600,TIDEWATER & LINDENWOOD,0
36.858298,,-76.272851,0601,TIDEWATER & GOFF,0
36.963655,,-76.267668,0606,OCEAN VIEW & 7TH VIEW,0
36.962704,,-76.265824,0607,OCEAN VIEW & 6TH VIEW,0
37.025802,,-76.349531,2259,ARMISTEAD & QUEEN,0
36.965177,,-76.272444,0605,OCEAN VIEW & 8TH VIEW,0
37.0332,,-76.327172,2255,PEMBROKE & CALHOUN,0
36.827575,,-76.31251,2254,ELM & DUKE,0
37.031087,,-76.324585,2253,MERCURY & OLD POINT,0
37.027889,,-76.323456,2251,MERCURY & WOODLAND,0
37.028653,,-76.40537,2477,ABERDEEN & DAVIS,0
36.797165,,-76.350094,2476,GUST & BUNCHE,0
36.84673,,-75.974557,5792,ATLANTIC & 18TH,0
36.854853,,-76.024576,5152,FIRST COLONIAL & WOLFSNARE,0
36.857462,,-75.977785,9565,ATLANTIC & 29TH,0
37.02535,,-76.404876,2479,ABERDEEN & GRANGER,0
36.865234,,-76.399083,5156,CHURCHLAND & POPLAR HILL,0
37.011848,,-76.446841,2785,WARWICK & 72ND,0
37.019385,,-76.451573,2784,WARWICK & HORNET,0
37.006715,,-76.445713,2787,HUNTINGTON & 68TH,0
37.026273,,-76.455836,2780,WARWICK & WOODFIN,0
37.022962,,-76.453775,2782,WARWICK & SOUTH,0
37.003782,,-76.443563,2789,HUNTINGTON & 64TH,0
37.024936,,-76.423222,2079,WEAVER & MARTHA LEE,0
36.837277,,-76.324472,5894,LONDON & JAMESTOWN,0
37.032181,,-76.40445,2072,WEAVER & ABERDEEN,0
37.026124,,-76.361112,2265,QUEEN & PATTERSON,0
37.03547,,-76.39804,2070,QUEEN & WEAVER,0
37.027002,,-76.4193,2077,WEAVER & BIG BETHEL,0
36.875106,,-76.232698,0644,SEWELLS POINT & BRUCE,0
37.031297,,-76.410687,2075,WEAVER & TWIN OAKS,0
37.031802,,-76.40834,2074,WEAVER & MARY PEAKE,0
36.746311,,-76.244966,9084,BATTLEFIELD & MEDICAL,0
37.02595,,-76.383925,2203,QUEEN & INDEPENDENCE,0
36.915266,,-76.221024,5895,LITTLE CREEK & HALPRIN,0
36.942651,,-76.322436,9318,COLD STORAGE & VIRGINIA,0
37.025302,,-76.381131,2204,QUEEN & INLANDVIEW,0
37.023787,,-76.375919,2205,QUEEN & SALTERS CREEK,0
36.959291,,-76.325811,5088,HUGHES & DECATUR,0
36.944627,,-76.32248,5083,VIRGINIA & TAUSSIG,0
36.937292,,-76.321326,5082,B & VIRGINIA,0
37.025659,,-76.370167,2207,QUEEN & MCDONALD,0
36.946823,,-76.328729,5086,DECATUR & GILBERT,0
36.946644,,-76.328604,5085,DECATUR & GILBERT,0
37.105262,,-76.496299,2671,OYSTER POINT & WATERMAN,0
37.107026,,-76.495564,2670,JEFFERSON & HQ,0
37.10489,,-76.510214,2673,OYSTER POINT & WARWICK,0
37.106091,,-76.506617,2672,OYSTER POINT & ARBORETUM,0
37.110641,,-76.516621,2675,WARWICK & YOUNGS MILL,0
37.107928,,-76.514576,2674,WARWICK & MENNON WOOD,0
37.114856,,-76.519581,2677,WARWICK & ADAMS WOOD,0
37.112412,,-76.517858,2676,WARWICK & COLONY,0
37.117977,,-76.522284,2679,WARWICK & CAMPBELL,0
36.777075,,-76.096184,6103,MEDICAL & GLENN MITCHELL,0
37.040913,,-76.301939,2929,PEMBROKE & REYNOLDS,0
37.04037,,-76.304039,2928,PEMBROKE & OLD BUCKROE,0
37.049475,,-76.306091,2921,ANDREWS & NEWTON,0
37.051302,,-76.303007,2920,ANDREWS & FRANKTOWN,0
37.045534,,-76.310466,2923,AMHERST & BANCROFT,0
37.048253,,-76.307933,2922,ANDREWS & NICKERSON,0
36.805476,,-75.991795,2925,GENERAL BOOTH & BOSHER,0
37.040598,,-76.308018,2927,SKYLAND & PEMBROKE,0
37.042209,,-76.306875,2926,AMHERST & SKYLAND,0
36.913858,,-76.061838,6102,SHORE & WAKE FOREST,0
36.858697,,-76.30349,8001_merged_9740018,EVMC/FORT NORFOLK,0
37.087661,,-76.425037,3214,SAUNDERS & BIG BETHEL,0
37.078816,,-76.425753,3215,BIG BETHEL & TUPELO,0
37.070992,,-76.427132,3217,BIG BETHEL & PARK,0
37.093131,,-76.445458,3210,DAPHIA & SAUNDERS 2,0
37.090592,,-76.438528,3211,SAUNDERS & KINGWOOD,0
37.089619,,-76.434994,3212,SAUNDERS & SANLUN LAKES,0
37.08842,,-76.431902,3213,SAUNDERS & PHILMONT,0
36.826564,,-76.306341,1639,EFFINGHAM & HENRY,0
37.058484,,-76.33666,2904,CLEMWOOD & APOLLO,0
37.025877,,-76.437851,3218,NET CENTER,0
36.847352,,-76.18584,3219,NORTH CENTER & CENTER,0
36.861911,,-76.278376,0411_merged_9740009,CHURCH & LEXINGTON,0
36.851187,,-76.288796,8003,MONTICELLO,0
37.103898,,-76.493539,3179,JEFFERSON & OYSTER POINT,0
37.124137,,-76.508934,3178,JEFFERSON & HABERSHAM,0
36.866243,,-76.235072,0641,AZALEA GARDEN & PRINCESS ANNE,0
37.123718,,-76.508154,3171,JEFFERSON & HABERSHAM,0
37.103536,,-76.492871,3170,JEFFERSON & OYSTER POINT,0
37.130144,,-76.503613,3172,NEWPORT NEWS & WMSBG  AIRPORT,0
37.136353,,-76.51855,3177,JEFFERSON & DENBIGH,0
37.185974,,-76.571714,3379,WARWICK & CURTIS,0
36.859497,,-76.250249,1186,PRINCESS ANNE & BALLENTINE,0
36.945825,,-76.295631,3376,TOWWAY & 4TH,0
36.857294,,-76.253748,1185,PRINCESS ANNE & MERRIMAC,0
36.993532,,-76.629131,3372,SMITHFIELD MEAT PACKING PLANT,0
36.977046,,-76.641491,3371,SMITHFIELD PARK N RIDE,0
36.951849,,-76.532177,3370,SMITHS NECK & CARROLLTON,0
36.908316,,-76.067334,5995,GREAT NECK & LYNNHAVEN,0
36.811374,,-76.327705,1741,DEEP CREEK & CHARLES,0
36.809637,,-76.328888,1742,DEEP CREEK & BENTON,0
36.806426,,-76.333156,1743,GREENWOOD & MAUPIN,0
36.864911,,-76.29719,1166,PRINCESS ANNE & MANTEO,0
36.863604,,-76.294397,1167,PRINCESS ANNE & COLONIAL,0
36.84234,,-76.020369,1161,VIRGINIA BEACH & FIRST COLONIAL,0
36.840041,,-76.102471,1162,VIRGINIA BEACH & BIRCHWOOD MALL,0
36.840341,,-76.099333,1163,VIRGINIA BEACH & ROSEMONT,0
36.862459,,-76.292136,1168,PRINCESS ANNE & BOTETOURT,0
37.024645,,-76.378235,5520,QUEEN & ALLISON SUTTON,0
36.851261,,-75.975954,5799,ATLANTIC & 23RD,0
36.892072,,-76.05529,5994,GREAT NECK & UPPER CHELSEA REACH,0
37.050704,,-76.389919,5527,MARCELLA & WILLIAMSBURG,0
37.055276,,-76.387422,5528,MEDICAL & MARCELLA,0
37.056511,,-76.387469,5529,MEDICAL & VERNON STUART,0
36.991726,,-76.427627,3304,JEFFERSON & 41ST,0
37.082829,,-76.466654,3197,THIMBLE SHOALS & DILIGENCE,0
37.139262,,-76.520845,3305,JEFFERSON & DENBIGH,0
37.030049,,-76.405452,2580,ABERDEEN & E. LEWIS,0
36.801407,,-76.352173,1568,VICTORY & GREENWOOD,0
36.80481,,-76.354168,1569,VICTORY & FREEDOM,0
36.803969,,-76.082631,1365,LYNNHAVEN & RIVERBEND,0
36.816341,,-76.264046,1292,LIBERTY & JEFFERSON,0
36.798954,,-76.325071,1561,GEORGE WASHINGTON & GARRETT,0
36.852198,,-76.192566,1290,KEMPSVILLE & KEMPSVILLE CIRCLE,0
36.796559,,-76.326633,1563,GEORGE WASHINGTON & RODGERS,0
36.844153,,-76.184506,1296,NEWTOWN & GREENWICH,0
36.795976,,-76.332367,1565,VICTORY & VICTORY VILLAGE APTS,0
36.843094,,-76.189386,1294,KEMPSVILLE & BANGOR,0
36.842129,,-76.187142,1295,NEWTOWN & KEMPSVILLE,0
36.855509,,-76.384087,4003,HIGH & CLOVER HILL,0
37.010774,,-76.353027,2033,KECOUGHTAN & ELIZABETH,0
36.890994,,-76.220574,0949,MILITARY & AZALEA GARDEN,0
37.025218,,-76.332939,9387,SETTLERS LANDING & HAMPTON HARBOR,0
36.87951,,-76.21228,0943,MILITARY & ROBIN HOOD,0
36.876451,,-76.210596,0942,MILITARY & ELIZABETH,0
36.880155,,-76.221035,0945,ROBIN HOOD & AYLIFF,0
36.881008,,-76.218142,0944,ROBIN HOOD & ALMEDA,0
36.881706,,-76.225107,0947,AZALEA GARDEN & BEAMON,0
36.863605,,-76.028284,9381,FIRST COLONIAL & COLONIAL MEDICAL,0
36.816348,,-76.329531,5638,PORTSMOUTH & DEEP CREEK,0
37.043735,,-76.389489,5639,COLISEUM & VON SCHILLING,0
37.132293,,-76.542545,5635,OLD COURTHOUSE & WARWICK,0
36.848621,,-76.292611,5636,BOUSH & BROOKE,0
36.834727,,-76.324189,1714,HIGH & JAMESTOWN,0
37.13245,,-76.542688,5633,OLD COURTHOUSE & WARWICK,0
36.810173,,-76.072678,1366,LYNNHAVEN & CHERIE,0
37.080769,,-76.465293,3196,THIMBLE SHOALS & GREAT OAK,0
37.077022,,-76.466535,3194,J CLYDE MORRIS & PORT LANDING,0
37.075832,,-76.469458,3193,J CLYDE MORRIS & FORREST,0
37.074491,,-76.472804,3192,J CLYDE MORRIS & IMPALA,0
36.78866,,-76.096653,1360,ROSEMONT & BUCKNER,0
36.779599,,-76.097171,3190,PRINCESS ANNE & CONCERT,0
36.845937,,-76.286011,8005_merged_9740023,CIVIC PLAZA,0
37.084234,,-76.463273,3199,DILIGENCE & ROCK LANDING,0
